city,state,zip,latitude,longitude,id,opendate,openyear
Los Angeles,CA,90015,34.040539,-118.27139,1523,8/30/1995,1995
El Monte,CA,91731,34.068722,-118.064,1583,10/15/1996,1996
La Jolla,CA,92037,32.899471,-117.243,6355,7/30/1997,1997
Pasadena,CA,91105,34.145138,-118.15266,6506,8/30/1997,1997
Riverside,CA,92503,33.909912,-117.45905,6425,8/30/1997,1997
Pasadena,CA,91105,34.145119,-118.15013,6507,8/30/1997,1997
Pasadena,CA,91103,34.147621,-118.14711,6505,8/30/1997,1997
Pasadena,CA,91101,34.142975,-118.14056,6508,8/31/1997,1997
Sherman Oaks,CA,91423,34.156837,-118.43446,7233,5/30/1998,1998
Universal City,CA,91608,34.138718,-118.35904,7242,5/30/1998,1998
Oxnard,CA,93030,34.228313,-119.17087,7195,5/30/1998,1998
Riverside,CA,92509,34.018902,-117.38,7206,5/30/1998,1998
Northridge,CA,91324,34.241116,-118.55671,7192,5/30/1998,1998
Encino,CA,91436,34.169243,-118.49722,21383,6/15/1998,1998
Granite Bay,CA,95746,38.74453,-121.17,25527,6/15/1998,1998
Downey,CA,90241,33.947559,-118.15381,7250,6/15/1998,1998
Ontario,CA,91764,34.07122,-117.575,7194,6/15/1998,1998
Los Angeles,CA,90045,33.943249,-118.40334,7184,6/30/1998,1998
Van Nuys,CA,91405,34.211079,-118.44871,7245,6/30/1998,1998
Santa Monica,CA,90405,34.017082,-118.44704,7229,6/30/1998,1998
Santa Cruz,CA,95061,36.973392,-122.02485,21794,6/30/1998,1998
Sacramento,CA,95837,38.690048,-121.58889,7212,6/30/1998,1998
San Francisco,CA,94133,37.80619,-122.4152,7280,7/1/1998,1998
Los Angeles,CA,90012,34.01223,-118.33432,78834,10/15/1999,1999
San Luis Obispo,CA,93401,35.279705,-120.6609,41526,4/15/2000,2000
San Luis Obispo,CA,93405,35.249928,-120.68968,35560,4/15/2000,2000
San Luis Obispo,CA,93401,35.259819,-120.676,35561,4/15/2000,2000
Northridge,CA,91330,34.241688,-118.52854,21396,1/15/2002,2002
Northridge,CA,91330,34.236855,-118.53259,21397,1/15/2002,2002
Northridge,CA,91330,34.248959,-118.52389,21395,1/15/2002,2002
San Francisco,CA,94105,37.788811,-122.401,21358,1/31/2002,2002
San Francisco,CA,94108,37.79179,-122.41126,21360,1/31/2002,2002
Los Angeles,CA,90012,34.057655,-118.24789,21374,1/31/2002,2002
Los Angeles,CA,90048,34.076263,-118.37753,21368,1/31/2002,2002
Ventura,CA,93001,34.378769,-119.31397,152034,2/20/2002,2002
Glendora,CA,91741,34.135559,-117.864,21498,4/30/2002,2002
Newbury Park,CA,91320,34.192177,-118.93479,21565,5/15/2002,2002
Pasadena,CA,91101,34.147709,-118.13662,21594,5/30/2002,2002
Oak View,CA,93022,34.418324,-119.3368,21566,5/30/2002,2002
Ventura,CA,93003,34.268002,-119.2492,21608,5/30/2002,2002
San Dimas,CA,91773,34.105274,-117.80921,21569,5/30/2002,2002
Brea,CA,92821,33.919899,-117.89862,21561,5/30/2002,2002
Camarillo,CA,93012,34.166576,-119.04585,21559,5/30/2002,2002
Santa Ana,CA,92705,33.777054,-117.87057,21535,5/30/2002,2002
Placerville,CA,95667,38.727989,-120.828,25522,5/15/2004,2004
Placerville,CA,95667,38.733231,-120.78962,25507,5/30/2004,2004
Sacramento,CA,95816,38.572769,-121.4679,25494,5/30/2004,2004
Fair Oaks,CA,95628,38.662922,-121.2634,25491,6/1/2004,2004
Davis,CA,95616,38.539337,-121.73241,21673,6/1/2004,2004
Vacaville,CA,95687,38.356026,-121.9628,25511,6/15/2004,2004
Dixon,CA,95620,38.457371,-121.84257,25520,6/15/2004,2004
Vacaville,CA,95688,38.356907,-122.00188,25516,6/15/2004,2004
Vacaville,CA,95688,38.351719,-121.987,25515,6/15/2004,2004
Vacaville,CA,95688,38.351757,-121.99448,25518,6/15/2004,2004
Vacaville,CA,95688,38.355865,-121.9862,25517,6/15/2004,2004
Carmichael,CA,95608,38.618065,-121.33434,25610,7/15/2004,2004
Fairfield,CA,94534,38.237228,-122.123,27329,7/15/2005,2005
Vacaville,CA,95687,38.349621,-121.987,48838,7/15/2005,2005
San Diego,CA,92105,32.754955,-117.10746,96107,7/15/2006,2006
Rio Vista,CA,94571,38.15485,-121.69,27302,8/15/2006,2006
Truckee,CA,96161,39.327293,-120.21485,99180,11/15/2008,2008
Ukiah,CA,95482,39.150002,-123.2091,33544,11/30/2008,2008
Auburn,CA,95603,38.94125,-121.10548,33550,11/30/2008,2008
Napa,CA,94558,38.295982,-122.30322,148522,11/30/2008,2008
Davis,CA,95616,38.535522,-121.76299,85994,12/1/2008,2008
Davis,CA,95616,38.5443,-121.738,33556,12/1/2008,2008
Davis,CA,95616,38.533127,-121.7494,85997,12/1/2008,2008
Davis,CA,95616,38.535656,-121.75458,85996,12/1/2008,2008
Davis,CA,95616,38.532776,-121.7485,85998,12/1/2008,2008
Davis,CA,95616,38.543079,-121.76157,86000,12/1/2008,2008
Davis,CA,95616,38.544537,-121.74971,33557,12/1/2008,2008
Davis,CA,95616,38.531113,-121.7627,85995,12/1/2008,2008
Davis,CA,95618,38.557549,-121.6947,33558,12/1/2008,2008
Davis,CA,95616,38.546429,-121.7388,33555,12/1/2008,2008
Davis,CA,95616,38.539318,-121.8053,85993,12/1/2008,2008
Vacaville,CA,95688,38.368755,-121.96119,33545,12/15/2008,2008
Larkspur,CA,94939,37.94495,-122.5096,33690,12/31/2008,2008
Fairfield,CA,94533,38.248199,-122.0678,35146,5/1/2009,2009
Novato,CA,94947,38.117115,-122.6098,104205,6/1/2009,2009
Salinas,CA,93907,36.701038,-121.6673,35470,12/15/2009,2009
Fort Bragg,CA,95437,39.460808,-123.80681,66533,3/1/2010,2010
Sutter Creek,CA,95685,38.379982,-120.80767,46136,4/30/2010,2010
Santa Monica,CA,90401,34.019875,-118.49151,38379,11/15/2010,2010
Santa Monica,CA,90401,34.010529,-118.4898,38521,11/15/2010,2010
San Francisco,CA,94102,37.78487,-122.40899,38517,2/1/2011,2011
Oakland,CA,94612,37.810715,-122.26391,61854,2/1/2011,2011
San Francisco,CA,94109,37.806797,-122.41949,38518,2/1/2011,2011
Los Angeles,CA,90045,33.944759,-118.39977,28007,2/15/2011,2011
Upland,CA,91786,34.107365,-117.66707,60448,3/7/2011,2011
Costa Mesa,CA,92626,33.675396,-117.91869,39882,3/15/2011,2011
Colma,CA,94014,37.671268,-122.46354,39879,3/15/2011,2011
Downey,CA,90241,33.9473,-118.15117,39884,3/15/2011,2011
Napa,CA,94559,38.292706,-122.27776,39914,3/15/2011,2011
Corona,CA,92882,33.883091,-117.6153,39881,3/15/2011,2011
Chico,CA,95926,39.756332,-121.84371,39876,3/15/2011,2011
Buena Park,CA,90621,33.865498,-117.99522,39872,3/15/2011,2011
San Juan Capistrano,CA,92675,33.47443,-117.67614,39936,3/15/2011,2011
Mission Hills,CA,91345,34.26981,-118.46661,39910,3/15/2011,2011
Glendale,CA,91204,34.137054,-118.25536,39898,3/15/2011,2011
Santa Clara,CA,95051,37.32357,-121.98803,39939,3/15/2011,2011
Bakersfield,CA,93313,35.310722,-119.03532,39871,3/15/2011,2011
Salinas,CA,93907,36.720024,-121.66252,39930,3/15/2011,2011
Orange,CA,92867,33.808571,-117.86443,39917,3/15/2011,2011
Richmond,CA,94806,37.985252,-122.32124,39925,3/15/2011,2011
San Leandro,CA,94577,37.712608,-122.16274,39937,3/15/2011,2011
Antioch,CA,94509,38.007797,-121.83204,39870,3/15/2011,2011
Concord,CA,94520,37.98019,-122.05013,39880,3/15/2011,2011
San Luis Obispo,CA,93405,35.250622,-120.68455,39938,3/15/2011,2011
Los Angeles,CA,90015,34.035168,-118.27323,39906,3/15/2011,2011
Santa Maria,CA,93454,34.931797,-120.42064,48141,3/15/2011,2011
Victorville,CA,92394,34.517883,-117.3219,39956,3/15/2011,2011
Stockton,CA,95212,38.022022,-121.27534,39948,3/15/2011,2011
San Diego,CA,92111,32.833179,-117.14738,39932,3/15/2011,2011
Elk Grove,CA,95757,38.402218,-121.38553,39888,3/15/2011,2011
Roseville,CA,95661,38.752197,-121.25645,39928,3/15/2011,2011
Tustin,CA,92782,33.724838,-117.7993,39952,3/15/2011,2011
Modesto,CA,95356,37.70512,-120.99471,39911,3/15/2011,2011
National City,CA,91950,32.659,-117.10084,39915,3/15/2011,2011
Poway,CA,92064,32.956772,-117.02594,39921,3/15/2011,2011
Goleta,CA,93117,34.434269,-119.82093,39899,3/15/2011,2011
Seaside,CA,93955,36.611191,-121.8499,39944,3/15/2011,2011
Riverside,CA,92504,33.925468,-117.41967,39927,3/15/2011,2011
Fontana,CA,92336,34.135345,-117.44573,39892,3/15/2011,2011
Cerritos,CA,90703,33.861546,-118.10047,39875,3/15/2011,2011
Cathedral City,CA,92234,33.784142,-116.471,39874,3/15/2011,2011
Santa Rosa,CA,95404,38.425537,-122.71409,39943,3/15/2011,2011
Tracy,CA,95304,37.759907,-121.4632,39951,3/15/2011,2011
Petaluma,CA,94952,38.2672,-122.66507,39920,3/15/2011,2011
Vallejo,CA,94590,38.118088,-122.25549,39955,3/15/2011,2011
Valencia,CA,91355,34.420547,-118.55778,39954,3/15/2011,2011
San Jose,CA,95136,37.275143,-121.87766,39935,3/15/2011,2011
Oxnard,CA,93036,34.227711,-119.15022,39918,3/15/2011,2011
Escondido,CA,92029,33.116493,-117.10683,39889,3/15/2011,2011
Clovis,CA,93612,36.836819,-119.71763,39878,3/15/2011,2011
Merced,CA,95340,37.305889,-120.50243,39908,3/15/2011,2011
Garden Grove,CA,92844,33.766376,-117.96834,39895,3/15/2011,2011
City of Industry,CA,91748,33.99762,-117.92822,39877,3/15/2011,2011
El Monte,CA,91731,34.069534,-118.02691,39887,3/15/2011,2011
Oceanside,CA,92056,33.181953,-117.29833,39916,3/15/2011,2011
El Cajon,CA,92020,32.795895,-116.97616,39886,3/15/2011,2011
Riverside,CA,92507,33.941879,-117.2976,39926,3/15/2011,2011
Los Angeles,CA,90068,34.133446,-118.3566,39907,3/15/2011,2011
Carson,CA,90745,33.824966,-118.24567,39873,3/15/2011,2011
Gilroy,CA,95020,36.996868,-121.55857,39897,3/15/2011,2011
San Bernardino,CA,92408,34.074379,-117.298,39931,3/15/2011,2011
Vacaville,CA,95687,38.381439,-121.94122,39953,3/15/2011,2011
Fremont,CA,94538,37.489388,-121.9576,39893,3/15/2011,2011
Sunnyvale,CA,94087,37.359364,-122.02278,39934,3/15/2011,2011
Davis,CA,95618,38.552521,-121.69155,39883,3/15/2011,2011
Palmdale,CA,93551,34.591171,-118.13818,39919,3/15/2011,2011
West Covina,CA,91791,34.074226,-117.8909,39959,3/15/2011,2011
Duarte,CA,91010,34.136555,-117.97594,39885,3/15/2011,2011
Fresno,CA,93710,36.818623,-119.78979,39894,3/15/2011,2011
Temecula,CA,92591,33.516769,-117.15504,39949,3/15/2011,2011
Gardena,CA,90247,33.889202,-118.30703,39896,3/15/2011,2011
Folsom,CA,95630,38.634132,-121.20487,39891,3/15/2011,2011
Hayward,CA,94544,37.662304,-122.07518,39901,3/15/2011,2011
Redlands,CA,92374,34.065388,-117.21201,39913,3/15/2011,2011
Hemet,CA,92545,33.741161,-117.03172,39902,3/15/2011,2011
Redwood City,CA,94063,37.495964,-122.22733,39923,3/15/2011,2011
Redding,CA,96002,40.571632,-122.36654,39922,3/15/2011,2011
Eureka,CA,95501,40.800564,-124.16441,39890,3/15/2011,2011
Irvine,CA,92618,33.632504,-117.7233,39904,3/15/2011,2011
La Quinta,CA,92253,33.707111,-116.28371,39905,3/15/2011,2011
Visalia,CA,93292,36.323269,-119.27569,39957,3/15/2011,2011
Huntington Beach,CA,92647,33.71069,-117.98986,39903,3/15/2011,2011
Simi Valley,CA,93065,34.277325,-118.77895,39947,3/15/2011,2011
San Diego,CA,92109,32.802475,-117.21527,39933,4/1/2011,2011
San Diego,CA,92111,32.824085,-117.14713,40407,5/15/2011,2011
Ukiah,CA,95482,39.145802,-123.19849,39314,5/15/2011,2011
Ukiah,CA,95482,39.145191,-123.19754,113494,5/15/2011,2011
Malibu,CA,90265,34.037228,-118.68903,49333,7/1/2011,2011
Sacramento,CA,95814,38.582058,-121.48935,70561,7/20/2011,2011
Burlingame,CA,94010,37.601822,-122.37007,112877,7/20/2011,2011
San Diego,CA,92123,32.823914,-117.12114,40185,7/22/2011,2011
Sacramento,CA,95811,38.574402,-121.50487,71439,7/27/2011,2011
San Francisco,CA,94103,37.782078,-122.40476,50011,8/1/2011,2011
Malibu,CA,90265,34.035801,-118.68639,43478,8/20/2011,2011
Tahoe City,CA,96145,39.166653,-120.14823,70674,10/24/2011,2011
San Diego,CA,92108,32.780041,-117.1264,96335,12/1/2011,2011
Palm Springs,CA,92262,33.824005,-116.54359,7196,12/12/2011,2011
Temecula,CA,92590,33.496052,-117.152,7236,12/31/2011,2011
Palm Desert,CA,92260,33.755619,-116.361,48365,12/31/2011,2011
Palm Desert,CA,92260,33.757748,-116.36002,113199,12/31/2011,2011
Calistoga,CA,94515,38.58411,-122.57093,112894,1/1/2012,2012
Los Angeles,CA,90045,33.9492,-118.385,48362,1/1/2012,2012
Brea,CA,92821,33.917431,-117.889,48823,1/1/2012,2012
Eureka,CA,95503,40.807266,-124.11442,53901,1/1/2012,2012
Ontario,CA,91764,34.076382,-117.55531,148770,1/3/2012,2012
Costa Mesa,CA,92626,33.689957,-117.91592,96334,1/15/2012,2012
Emeryville,CA,94608,37.831158,-122.29247,96336,1/15/2012,2012
San Diego,CA,92111,32.804184,-117.16537,96230,1/15/2012,2012
Santa Rosa,CA,95401,38.440884,-122.71749,148523,1/15/2012,2012
Hollywood,CA,90028,34.098461,-118.33289,66933,1/15/2012,2012
Santa Rosa,CA,95403,38.466183,-122.75121,148519,1/19/2012,2012
Rancho Cucamonga,CA,91730,34.103031,-117.576,46973,1/31/2012,2012
Rancho Cucamonga,CA,91730,34.100456,-117.54918,46974,1/31/2012,2012
Rancho Cucamonga,CA,91730,34.09177,-117.559,48979,1/31/2012,2012
Fairfield,CA,94533,38.244614,-122.07918,46724,1/31/2012,2012
Rancho Cucamonga,CA,91730,34.11787,-117.611,46976,1/31/2012,2012
Ontario,CA,91761,34.049007,-117.54716,46743,1/31/2012,2012
Rancho Cucamonga,CA,91730,34.120213,-117.59395,46972,1/31/2012,2012
Burlingame,CA,94010,37.577919,-122.34193,46709,1/31/2012,2012
Dublin,CA,94568,37.702827,-121.91109,46721,1/31/2012,2012
Rancho Cucamonga,CA,91737,34.154034,-117.60744,46978,1/31/2012,2012
Victorville,CA,92392,34.511036,-117.32535,49149,2/1/2012,2012
Escondido,CA,92029,33.115871,-117.11955,46723,2/7/2012,2012
San Diego,CA,92101,32.71978,-117.15862,96513,2/8/2012,2012
Indian Wells,CA,92210,33.723286,-116.32632,113028,2/15/2012,2012
San Francisco,CA,94129,37.806099,-122.44946,43526,2/15/2012,2012
Indian Wells,CA,92210,33.723228,-116.32441,46729,2/15/2012,2012
San Diego,CA,92119,32.803322,-117.00872,148867,2/20/2012,2012
Petaluma,CA,94952,38.253651,-122.64784,148529,2/20/2012,2012
Santa Cruz,CA,95062,36.980865,-122.0021,148735,2/20/2012,2012
Chula Vista,CA,91911,32.613529,-117.06882,148879,2/20/2012,2012
El Cajon,CA,92021,32.796841,-116.93549,148866,2/20/2012,2012
Placerville,CA,95667,38.706341,-120.83169,148498,2/20/2012,2012
Vista,CA,92083,33.168926,-117.21187,148841,2/20/2012,2012
San Francisco,CA,94109,37.788128,-122.42214,50969,3/1/2012,2012
Aliso Viejo,CA,92656,33.577103,-117.72385,44400,3/1/2012,2012
Poway,CA,92064,32.956688,-117.04118,148844,3/1/2012,2012
Pleasanton,CA,94566,37.675949,-121.87495,148549,3/1/2012,2012
Dublin,CA,94568,37.702908,-121.91835,45313,3/15/2012,2012
San Francisco,CA,94108,37.789883,-122.40681,46477,4/1/2012,2012
San Diego,CA,92101,32.716076,-117.16153,113312,4/1/2012,2012
Mission Hills,CA,91345,34.279221,-118.46014,95980,4/1/2012,2012
San Diego,CA,92126,32.906288,-117.12099,96117,4/1/2012,2012
Capitola,CA,95010,36.981884,-121.96223,47457,4/1/2012,2012
Campbell,CA,95008,37.287594,-121.94691,46715,4/1/2012,2012
San Diego,CA,92101,32.716087,-117.14881,96116,4/1/2012,2012
Los Angeles,CA,90036,34.063381,-118.35808,46733,4/10/2012,2012
San Francisco,CA,94118,37.768764,-122.46834,46473,4/10/2012,2012
Coronado,CA,92118,32.678211,-117.17377,95269,4/10/2012,2012
Los Angeles,CA,90007,34.028278,-118.2778,48358,4/20/2012,2012
Costa Mesa,CA,92626,33.69276,-117.9183,48353,4/20/2012,2012
El Dorado Hills,CA,95762,38.647598,-121.067,25523,5/1/2012,2012
Long Beach,CA,90802,33.763699,-118.192,7172,5/4/2012,2012
Orange,CA,92868,33.784801,-117.89359,70875,5/10/2012,2012
Torrance,CA,90503,33.842487,-118.354,48710,5/15/2012,2012
Santa Monica,CA,90403,34.029457,-118.48582,48705,5/15/2012,2012
El Segundo,CA,90245,33.930573,-118.40074,96458,5/31/2012,2012
San Diego,CA,92101,32.729,-117.2048,95216,5/31/2012,2012
Cotati,CA,94931,38.323978,-122.70912,48179,5/31/2012,2012
San Jose,CA,95118,37.247608,-121.8745,47910,5/31/2012,2012
Banning,CA,92220,33.929657,-116.94624,148769,6/1/2012,2012
Healdsburg,CA,95448,38.606403,-122.86227,51214,6/1/2012,2012
Yosemite National Park,CA,95389,37.746559,-119.584,47464,6/1/2012,2012
Monrovia,CA,91016,34.138672,-117.9869,49127,6/15/2012,2012
Davis,CA,95618,38.542461,-121.7279,49330,6/15/2012,2012
Ontario,CA,91761,34.0616,-117.5935,49131,6/18/2012,2012
Morro Bay,CA,93442,35.367249,-120.847,48728,6/19/2012,2012
San Diego,CA,92123,32.798302,-117.15569,95768,6/27/2012,2012
San Diego,CA,92123,32.799492,-117.15395,95767,6/27/2012,2012
San Luis Obispo,CA,93401,35.252289,-120.6862,48368,6/30/2012,2012
San Luis Obispo,CA,93401,35.28059,-120.657,48836,7/1/2012,2012
San Diego,CA,92109,32.774849,-117.23936,96524,7/3/2012,2012
Sacramento,CA,95841,38.65041,-121.3455,70070,7/13/2012,2012
Pomona,CA,91768,34.049339,-117.82341,49133,7/16/2012,2012
Temecula,CA,92592,33.454498,-117.10172,113468,7/18/2012,2012
Temecula,CA,92592,33.458107,-117.10765,60194,7/18/2012,2012
Lodi,CA,95240,38.134369,-121.2884,49122,7/24/2012,2012
Sacramento,CA,95817,38.553547,-121.4561,49134,7/25/2012,2012
Sacramento,CA,95819,38.563946,-121.42572,70074,8/1/2012,2012
Sacramento,CA,95819,38.559921,-121.42693,70072,8/21/2012,2012
Sacramento,CA,95819,38.559971,-121.42061,70073,8/24/2012,2012
Fairfield,CA,94533,38.252811,-122.04423,27328,8/27/2012,2012
Colfax,CA,95713,39.084259,-120.956,49255,8/28/2012,2012
Vallejo,CA,94590,38.1022,-122.261,49350,8/29/2012,2012
Davis,CA,95616,38.5467,-121.7461,49329,8/29/2012,2012
Newbury Park,CA,91320,34.152946,-118.96535,49130,8/29/2012,2012
Salinas,CA,93901,36.673855,-121.6658,49336,8/31/2012,2012
Escondido,CA,92029,33.116898,-117.10593,53900,9/1/2012,2012
Santa Monica,CA,90401,34.00909,-118.49306,113385,9/14/2012,2012
San Diego,CA,92103,32.747692,-117.15813,70567,10/1/2012,2012
Ventura,CA,93003,34.268757,-119.2154,21607,10/18/2012,2012
Ventura,CA,93009,34.267353,-119.2124,21606,10/19/2012,2012
Lakewood,CA,90712,33.847881,-118.13889,33564,10/25/2012,2012
Carlsbad,CA,92008,33.131336,-117.30917,95288,11/15/2012,2012
Hayward,CA,94541,37.671482,-122.08415,95870,11/15/2012,2012
Pasadena,CA,91101,34.144222,-118.14213,50153,11/27/2012,2012
Pasadena,CA,91101,34.148186,-118.14178,50154,11/27/2012,2012
Irvine,CA,92618,33.68985,-117.76894,169966,11/30/2012,2012
Gilroy,CA,95020,37.001289,-121.55399,169965,11/30/2012,2012
Roseville,CA,95661,38.749054,-121.25438,60179,12/1/2012,2012
Sepulveda,CA,91343,34.221664,-118.46837,6405,12/11/2012,2012
Pleasanton,CA,94588,37.700188,-121.87617,7197,12/14/2012,2012
Salinas,CA,93908,36.594597,-121.62469,50742,12/14/2012,2012
Oakland,CA,94621,37.7136,-122.2087,33695,12/20/2012,2012
Santa Barbara,CA,93105,34.441147,-119.74889,50157,12/20/2012,2012
Oakland,CA,94621,37.715302,-122.2145,50736,12/20/2012,2012
San Anselmo,CA,94939,37.981178,-122.56482,105292,1/1/2013,2013
Salinas,CA,93907,36.715519,-121.6628,63808,1/1/2013,2013
Santa Monica,CA,90403,34.014297,-118.49638,65080,1/1/2013,2013
Temecula,CA,92590,33.49353,-117.146,50799,1/22/2013,2013
Long Beach,CA,90806,33.806694,-118.18784,94761,1/22/2013,2013
Santa Barbara,CA,93109,34.40641,-119.697,50792,1/23/2013,2013
Davis,CA,95616,38.542149,-121.771,51002,1/25/2013,2013
Roseville,CA,95678,38.797142,-121.31234,51204,2/1/2013,2013
National City,CA,91950,32.661407,-117.10204,60180,2/1/2013,2013
Sacramento,CA,95822,38.524403,-121.5112,25502,2/11/2013,2013
Hollister,CA,95023,36.841816,-121.45731,51053,2/15/2013,2013
San Diego,CA,92108,32.770344,-117.15903,95536,2/15/2013,2013
Menlo Park,CA,94025,37.4842,-122.15032,96186,2/15/2013,2013
Palo Alto,CA,94304,37.782284,-122.41818,50949,2/15/2013,2013
Elk Grove,CA,95624,38.431454,-121.29934,51210,2/21/2013,2013
Santa Barbara,CA,93103,34.423435,-119.68182,70575,2/21/2013,2013
Sacramento,CA,95811,38.56868,-121.49265,51234,2/21/2013,2013
Truckee,CA,96161,39.324005,-120.16978,51252,2/26/2013,2013
Sacramento,CA,95814,38.578648,-121.50238,51236,2/26/2013,2013
Truckee,CA,96161,39.324005,-120.16978,113483,2/26/2013,2013
Rancho Cucamonga,CA,91701,34.136246,-117.61613,51131,2/27/2013,2013
Folsom,CA,95630,38.676632,-121.17958,51211,2/28/2013,2013
Rancho Palos Verdes,CA,90275,33.734966,-118.33333,51937,3/4/2013,2013
San Pedro,CA,90710,33.778534,-118.30445,71444,3/4/2013,2013
Pismo Beach,CA,93449,35.136078,-120.62373,53381,3/5/2013,2013
Solvang,CA,93463,34.6059,-120.10137,53406,3/5/2013,2013
Davis,CA,95616,38.533623,-121.75935,53373,3/6/2013,2013
Palm Springs,CA,92264,33.829433,-116.51292,52524,3/7/2013,2013
Palm Springs,CA,92264,33.822674,-116.51192,52527,3/7/2013,2013
San Rafael,CA,94903,38.007149,-122.55477,51952,3/9/2013,2013
Palm Springs,CA,92262,33.818722,-116.52668,52608,3/11/2013,2013
Palm Springs,CA,92262,33.828747,-116.51566,52605,3/11/2013,2013
Palm Springs,CA,92264,33.819691,-116.54588,52604,3/11/2013,2013
Palm Springs,CA,92262,33.821774,-116.51006,52606,3/11/2013,2013
Palm Springs,CA,92264,33.824715,-116.51119,52526,3/11/2013,2013
Santa Ynez,CA,93460,34.610085,-120.08646,51960,3/15/2013,2013
Santa Ynez,CA,93460,34.606071,-120.0937,51959,3/15/2013,2013
San Diego,CA,92106,32.725235,-117.22547,95426,3/15/2013,2013
San Jose,CA,95133,37.367107,-121.8486,96127,3/15/2013,2013
Chula Vista,CA,91914,32.658512,-116.95196,95425,3/15/2013,2013
Lodi,CA,95242,38.115528,-121.28894,51921,3/19/2013,2013
Palo Alto,CA,94306,37.41967,-122.11272,51934,3/19/2013,2013
Torrance,CA,90503,33.835419,-118.35023,113480,3/19/2013,2013
Lodi,CA,95240,38.132381,-121.28031,51920,3/19/2013,2013
Lodi,CA,95240,38.135265,-121.27686,51919,3/19/2013,2013
Torrance,CA,90503,33.835217,-118.35023,53408,3/19/2013,2013
Lodi,CA,95240,38.134789,-121.27182,51922,3/19/2013,2013
Lodi,CA,95240,38.137039,-121.27551,51923,3/19/2013,2013
Palo Alto,CA,94306,37.430038,-122.14794,51933,3/19/2013,2013
Costa Mesa,CA,92626,33.663494,-117.89937,51912,3/20/2013,2013
Sacramento,CA,95814,38.578941,-121.50386,53383,3/20/2013,2013
Morro Bay,CA,93442,35.366913,-120.84547,51515,3/25/2013,2013
San Dimas,CA,91773,34.077431,-117.81619,51947,3/26/2013,2013
San Pedro,CA,90731,33.740757,-118.28192,21402,3/26/2013,2013
Simi Valley,CA,93065,34.283592,-118.78146,113409,3/27/2013,2013
Manhattan Beach,CA,90266,33.886925,-118.40973,51926,3/27/2013,2013
Simi Valley,CA,93065,34.283592,-118.78146,52096,3/27/2013,2013
Simi Valley,CA,93065,34.283592,-118.78146,149234,3/27/2013,2013
Eureka,CA,95501,40.776783,-124.15025,158654,3/27/2013,2013
Santa Maria,CA,93455,34.92131,-120.42294,51956,3/28/2013,2013
Auburn,CA,95603,38.903198,-121.08385,53366,3/28/2013,2013
Santa Maria,CA,93455,34.92131,-120.42294,191595,3/28/2013,2013
Palm Desert,CA,92260,33.729855,-116.3791,51716,4/1/2013,2013
Mendocino,CA,95460,39.300259,-123.79134,113121,4/1/2013,2013
Palm Desert,CA,92260,33.730812,-116.38184,51516,4/1/2013,2013
Riverside,CA,92503,33.896439,-117.48323,70066,4/5/2013,2013
Hemet,CA,92543,33.746964,-116.96785,69992,4/9/2013,2013
Downey,CA,90241,33.935188,-118.12389,95901,4/15/2013,2013
Anaheim,CA,92806,33.836533,-117.87085,96197,4/15/2013,2013
Rancho Cucamonga,CA,91730,34.093578,-117.60525,51518,4/15/2013,2013
Mountain View,CA,94040,37.398643,-122.10821,148625,4/15/2013,2013
Northridge,CA,91330,34.237473,-118.52646,66724,5/1/2013,2013
Northridge,CA,91330,34.237625,-118.52448,66723,5/1/2013,2013
Santa Barbara,CA,93101,34.409885,-119.69729,51954,5/1/2013,2013
San Bernardino,CA,92407,34.181225,-117.32365,51945,5/13/2013,2013
Chula Vista,CA,91910,32.64138,-117.08546,95441,5/15/2013,2013
Mill Valley,CA,94941,37.892574,-122.57198,62072,5/15/2013,2013
Chula Vista,CA,91910,32.637997,-117.08269,96078,5/15/2013,2013
Coalinga,CA,93210,36.254101,-120.2379,102007,6/1/2013,2013
Folsom,CA,95630,38.6423,-121.1881,102021,6/1/2013,2013
Barstow,CA,92311,34.849098,-117.0855,102001,6/1/2013,2013
Atascadero,CA,93422,35.486347,-120.6661,99930,6/1/2013,2013
Gilroy,CA,95020,37.024502,-121.5654,102027,6/1/2013,2013
Fremont,CA,94538,37.492699,-121.9446,102025,6/1/2013,2013
Ontario,CA,91761,34.051441,-117.5439,53676,6/1/2013,2013
Lebec,CA,93243,34.9874,-118.9463,102037,6/1/2013,2013
Atascadero,CA,93422,35.486599,-120.6664,101998,6/1/2013,2013
Eureka,CA,95501,40.791885,-124.17503,91884,6/1/2013,2013
Buellton,CA,93427,34.614601,-120.1884,102002,6/1/2013,2013
Pasadena,CA,91101,34.144703,-118.14696,63068,7/1/2013,2013
Los Angeles,CA,90049,34.077587,-118.47459,21419,7/1/2013,2013
Pasadena,CA,91101,34.145123,-118.13823,63067,7/1/2013,2013
Placentia,CA,92870,33.887623,-117.8384,53719,7/1/2013,2013
Pasadena,CA,91103,34.148872,-118.14891,53677,7/1/2013,2013
Riverside,CA,92518,33.91116,-117.29002,52899,7/1/2013,2013
San Francisco,CA,94132,37.720848,-122.47702,52748,7/16/2013,2013
Calabasas,CA,91302,34.104237,-118.71153,52722,7/16/2013,2013
Fairfield,CA,94533,38.249222,-122.04182,52737,7/23/2013,2013
Sacramento,CA,95833,38.618916,-121.53536,70881,7/25/2013,2013
Olympic Valley,CA,96146,39.206535,-120.20918,113187,8/1/2013,2013
Olympic Valley,CA,96146,39.195911,-120.23625,52640,8/1/2013,2013
Palm Springs,CA,92262,33.825249,-116.53672,52528,8/5/2013,2013
San Leandro,CA,94577,37.692677,-122.17105,53917,8/5/2013,2013
Palm Springs,CA,92262,33.82069,-116.54747,52610,8/6/2013,2013
Palm Springs,CA,92262,33.843822,-116.5293,52603,8/7/2013,2013
Palm Springs,CA,92262,33.819687,-116.52124,52525,8/7/2013,2013
Palm Springs,CA,92262,33.858372,-116.55812,52611,8/14/2013,2013
Pleasanton,CA,94588,37.682743,-121.90053,95537,8/15/2013,2013
Pomona,CA,91768,34.051636,-117.82,53910,8/26/2013,2013
Vacaville,CA,95688,38.361237,-121.97596,53927,8/30/2013,2013
Camarillo,CA,93012,34.163868,-119.04176,64416,9/1/2013,2013
Anaheim,CA,92802,33.807636,-117.9222,69968,9/1/2013,2013
Palm Springs,CA,92262,33.837311,-116.54086,52612,9/1/2013,2013
Palm Springs,CA,92262,33.867737,-116.5523,52607,9/1/2013,2013
Torrance,CA,90503,33.845242,-118.35306,67701,9/5/2013,2013
Sacramento,CA,95811,38.596397,-121.49862,53072,9/15/2013,2013
Long Beach,CA,90840,33.786682,-118.10967,72028,9/30/2013,2013
Long Beach,CA,90840,33.786098,-118.11612,72027,9/30/2013,2013
Irvine,CA,92620,33.654079,-117.77808,70865,10/1/2013,2013
Mt. Shasta,CA,96067,41.3102,-122.3173,102044,10/31/2013,2013
Corning,CA,96021,39.926498,-122.1984,102009,10/31/2013,2013
Pacific Palisades,CA,90272,34.049793,-118.50134,148800,11/1/2013,2013
Walnut Creek,CA,94598,37.911789,-122.04127,148531,11/1/2013,2013
Santa Maria,CA,93455,34.922993,-120.42307,53921,11/1/2013,2013
Napa,CA,94558,38.34927,-122.26653,148515,11/1/2013,2013
San Francisco,CA,94111,37.795139,-122.39736,148557,11/1/2013,2013
Los Angeles,CA,90049,34.052654,-118.47281,148798,11/1/2013,2013
Hemet,CA,92545,33.737587,-117.03011,53903,11/1/2013,2013
Vista,CA,92083,33.19611,-117.25082,53930,11/1/2013,2013
Thousand Oaks,CA,91362,34.162975,-118.82825,53923,11/1/2013,2013
Costa Mesa,CA,92626,33.664352,-117.91856,60081,11/1/2013,2013
Lemon Grove,CA,91945,32.744766,-117.03039,53909,11/15/2013,2013
South Gate,CA,90280,33.950115,-118.16658,63653,12/1/2013,2013
San Diego,CA,92109,32.803768,-117.21825,53915,12/1/2013,2013
Winters,CA,95694,38.521374,-121.96803,64498,12/1/2013,2013
Alameda,CA,94501,37.75687,-122.25309,53723,12/10/2013,2013
Vacaville,CA,95687,38.3666,-121.9581,102075,12/15/2013,2013
Los Angeles,CA,90045,33.944267,-118.39919,82395,12/31/2013,2013
Los Angeles,CA,90077,34.072975,-118.4448,60125,1/1/2014,2014
Santa Rosa,CA,95407,38.403225,-122.71769,60227,1/1/2014,2014
Santa Barbara,CA,93105,34.435242,-119.74799,60200,1/1/2014,2014
San Simeon,CA,93452,35.614769,-121.14546,61528,1/1/2014,2014
Santa Barbara,CA,93101,34.425613,-119.70372,147533,1/1/2014,2014
Los Angeles,CA,90095,34.064304,-118.44316,144093,1/1/2014,2014
Los Angeles,CA,90007,34.017635,-118.28934,67309,1/2/2014,2014
Chula Vista,CA,91915,32.62471,-116.96785,151054,1/18/2014,2014
Glendale,CA,91203,34.155502,-118.2589,55814,1/20/2014,2014
Studio City,CA,91604,34.139748,-118.36185,63171,2/1/2014,2014
Felton,CA,95018,37.039478,-122.06875,61767,2/1/2014,2014
Long Beach,CA,90806,33.806007,-118.19055,63170,2/1/2014,2014
Los Angeles,CA,90012,34.055874,-118.23665,63169,2/1/2014,2014
Chula Vista,CA,91911,32.595543,-117.02529,61791,2/1/2014,2014
Downey,CA,90241,33.92907,-118.10947,65658,2/1/2014,2014
El Segundo,CA,90245,33.916294,-118.38587,63172,2/1/2014,2014
Pleasanton,CA,94588,37.700176,-121.89214,60677,3/11/2014,2014
San Dimas,CA,91773,34.104156,-117.80341,60720,3/13/2014,2014
Arcata,CA,95521,40.901077,-124.0843,94733,3/14/2014,2014
Sacramento,CA,95817,38.553131,-121.4343,60856,3/24/2014,2014
Sacramento,CA,95817,38.553131,-121.4343,60857,3/24/2014,2014
Newport Beach,CA,92663,33.629509,-117.92815,148838,4/1/2014,2014
Woodland,CA,95776,38.679226,-121.75351,62045,4/1/2014,2014
Banning,CA,92220,33.931747,-116.94595,66638,4/1/2014,2014
Glendale,CA,91203,34.154121,-118.25449,148778,4/3/2014,2014
Fresno,CA,93727,36.764141,-119.71839,61814,4/10/2014,2014
Roseville,CA,95678,38.771198,-121.2661,102054,4/15/2014,2014
Sherman Oaks,CA,91401,34.168823,-118.44906,39945,4/22/2014,2014
Northridge,CA,91330,34.242855,-118.5329,66722,5/1/2014,2014
Ontario,CA,91764,34.067291,-117.60417,61874,5/1/2014,2014
San Juan Capistrano,CA,92675,33.498501,-117.6631,102062,5/1/2014,2014
Northridge,CA,91330,34.241917,-118.5322,66721,5/1/2014,2014
West Hills,CA,91307,34.188229,-118.62369,148787,5/6/2014,2014
Danville,CA,94506,37.799801,-121.91862,151064,5/12/2014,2014
Orange,CA,92868,33.782021,-117.86792,95113,5/22/2014,2014
Anaheim,CA,92806,33.850868,-117.85661,95114,5/22/2014,2014
Anaheim,CA,92806,33.803741,-117.88786,95115,5/22/2014,2014
San Jose,CA,95122,37.326637,-121.81376,151247,5/31/2014,2014
Arcadia,CA,91007,34.145527,-118.05054,21450,6/1/2014,2014
Lakewood,CA,90712,33.849735,-118.133,65659,6/1/2014,2014
El Cajon,CA,92020,32.796246,-116.96588,96601,6/10/2014,2014
San Clemente,CA,92672,33.427277,-117.61126,166634,6/23/2014,2014
Westlake Village,CA,91362,34.168835,-118.82092,94803,6/30/2014,2014
Paso Robles,CA,93446,35.641205,-120.68714,62976,7/1/2014,2014
Paso Robles,CA,93446,35.641205,-120.68714,113226,7/1/2014,2014
Redondo Beach,CA,90278,33.872547,-118.36019,62602,7/1/2014,2014
San Francisco,CA,94132,37.726658,-122.476,63882,8/1/2014,2014
Agoura,CA,91301,34.13805,-118.71487,63040,8/1/2014,2014
Los Angeles,CA,90012,34.055504,-118.24886,63047,8/1/2014,2014
Lancaster,CA,93535,34.706158,-118.1248,63046,8/1/2014,2014
Los Angeles,CA,90012,34.059814,-118.24936,63052,8/1/2014,2014
Lynwood,CA,90059,33.92802,-118.22536,63059,8/1/2014,2014
Los Angeles,CA,90012,34.055035,-118.24514,63050,8/1/2014,2014
Monterey Park,CA,91754,34.060684,-118.16814,63060,8/1/2014,2014
Norwalk,CA,90650,33.914864,-118.06681,63061,8/1/2014,2014
Downey,CA,90242,33.930161,-118.15941,63044,8/1/2014,2014
Temple City,CA,91780,34.103035,-118.07594,63064,8/1/2014,2014
Davis,CA,95616,38.542217,-121.77188,63094,8/1/2014,2014
San Dimas,CA,91773,34.105076,-117.80221,63062,8/1/2014,2014
Santa Clarita,CA,91355,34.416092,-118.55126,63063,8/1/2014,2014
San Francisco,CA,94132,37.727859,-122.47631,63881,8/1/2014,2014
Lancaster,CA,93536,34.699162,-118.23666,63045,8/1/2014,2014
Los Angeles,CA,90063,34.050995,-118.17491,63057,8/1/2014,2014
Alhambra,CA,91803,34.084324,-118.14974,63041,8/1/2014,2014
Alhambra,CA,91803,34.085831,-118.14925,63042,8/1/2014,2014
Los Angeles,CA,90063,34.049683,-118.17235,67303,8/1/2014,2014
Groveland,CA,95321,37.839264,-120.22932,112994,8/1/2014,2014
Los Angeles,CA,90012,34.057655,-118.24789,63051,8/1/2014,2014
Walnut,CA,91789,34.029518,-117.83428,63065,8/1/2014,2014
Los Angeles,CA,90063,34.048248,-118.17036,63058,8/1/2014,2014
Point Reyes Station,CA,94956,38.040932,-122.80004,62978,8/6/2014,2014
Monterey,CA,93942,36.578716,-121.91319,148751,8/13/2014,2014
Truckee,CA,96161,39.3274,-120.2074,102072,8/15/2014,2014
El Cajon,CA,92020,32.79599,-116.96636,96188,8/15/2014,2014
San Francisco,CA,94133,37.80748,-122.41783,95223,8/28/2014,2014
Elk Grove,CA,95758,38.418159,-121.3949,69980,9/1/2014,2014
Los Angeles,CA,90028,34.1049,-118.32646,64778,9/1/2014,2014
Ferndale,CA,95536,40.575436,-124.26484,63181,9/1/2014,2014
San Francisco,CA,94124,37.749069,-122.40241,64775,9/1/2014,2014
Los Angeles,CA,90039,34.110474,-118.24657,64776,9/1/2014,2014
Somerset,CA,95684,38.633369,-120.62423,62463,9/1/2014,2014
Los Angeles,CA,90017,34.055328,-118.26707,70006,9/1/2014,2014
Los Angeles,CA,90001,33.985115,-118.25683,64774,9/1/2014,2014
Ferndale,CA,95536,40.575436,-124.26484,112967,9/1/2014,2014
Bakersfield,CA,93308,35.454891,-119.07833,69970,9/1/2014,2014
Ventura,CA,93003,34.246361,-119.20251,120806,9/1/2014,2014
Woodland Hills,CA,91367,34.17075,-118.64266,123366,9/1/2014,2014
Coronado,CA,92118,32.624535,-117.1303,69975,9/1/2014,2014
Hollywood,CA,90028,34.102654,-118.34032,99248,9/1/2014,2014
Escondido,CA,92027,33.098591,-117.00443,6384,9/2/2014,2014
Chico,CA,95928,39.717216,-121.80111,64559,9/11/2014,2014
Palo Alto,CA,94303,37.422104,-122.11351,63419,9/24/2014,2014
Santa Monica,CA,90403,34.033623,-118.48112,151254,9/26/2014,2014
La Jolla,CA,92037,32.886681,-117.24425,95812,9/30/2014,2014
San Diego,CA,92101,32.735306,-117.17683,70565,10/1/2014,2014
Downey,CA,90242,33.916039,-118.13358,63739,10/1/2014,2014
Marina Del Rey,CA,90292,33.978489,-118.44279,63734,10/1/2014,2014
Menlo Park,CA,94025,37.447655,-122.17271,148617,10/1/2014,2014
Indio,CA,92203,33.741299,-116.215,102033,10/1/2014,2014
Torrance,CA,90502,33.831539,-118.29455,63736,10/1/2014,2014
Commerce,CA,90022,34.01141,-118.1534,63735,10/1/2014,2014
Oxnard,CA,93036,34.238098,-119.1781,102048,10/1/2014,2014
Sylmar,CA,91342,34.325912,-118.44551,63738,10/1/2014,2014
Plymouth,CA,95669,38.536739,-120.79274,113278,10/2/2014,2014
Plymouth,CA,95669,38.536911,-120.79411,63654,10/2/2014,2014
Williams,CA,95987,39.156532,-122.14906,191523,10/3/2014,2014
Philo,CA,95466,39.0979,-123.48434,63730,10/10/2014,2014
Philo,CA,95466,39.0979,-123.48434,113262,10/10/2014,2014
Tarzana,CA,91356,34.169861,-118.54095,151258,10/14/2014,2014
San Jose,CA,95117,37.322678,-121.96248,98936,11/1/2014,2014
Huntington Beach,CA,92648,33.688484,-117.9894,98927,11/1/2014,2014
Santa Rosa,CA,95404,38.425594,-122.71351,98934,11/1/2014,2014
Cerritos,CA,90703,33.867264,-118.10108,98928,11/1/2014,2014
San Diego,CA,92111,32.83173,-117.1609,98932,11/1/2014,2014
Pomona,CA,91766,34.032372,-117.75661,98924,11/1/2014,2014
San Jose,CA,95136,37.276142,-121.86787,98925,11/1/2014,2014
Folsom,CA,95630,38.633137,-121.20616,150368,11/5/2014,2014
Auburn,CA,95603,38.902184,-121.08318,64700,12/1/2014,2014
Auburn,CA,95603,38.897018,-121.0744,64697,12/1/2014,2014
Palmdale,CA,93550,34.576958,-118.1158,94777,12/2/2014,2014
Palmdale,CA,93550,34.556488,-118.05932,94778,12/3/2014,2014
Anaheim,CA,92806,33.804367,-117.87715,65519,12/5/2014,2014
Gaviota,CA,93117,34.543045,-120.19193,64900,12/10/2014,2014
Gustine,CA,95322,37.055145,-121.0154,60871,12/15/2014,2014
San Jose,CA,95113,37.335079,-121.89468,148623,12/17/2014,2014
Santa Maria,CA,93455,34.865124,-120.36823,113380,12/28/2014,2014
Chatsworth,CA,91311,34.253048,-118.59868,50424,12/31/2014,2014
El Centro,CA,92243,32.760799,-115.5325,102017,1/1/2015,2015
Culver City,CA,90230,33.986801,-118.3902,102011,1/1/2015,2015
Pasadena,CA,91101,34.133434,-118.1366,65915,1/1/2015,2015
Rancho Cucamonga,CA,91739,34.113602,-117.5294,102050,1/1/2015,2015
Cabazon,CA,92230,33.931301,-116.8201,102006,1/1/2015,2015
Pasadena,CA,91101,34.14695,-118.1327,65916,1/1/2015,2015
Monterey,CA,93940,36.597424,-121.85831,148749,1/6/2015,2015
Santa Clarita,CA,91355,34.412159,-118.55622,151252,1/15/2015,2015
South San Francisco,CA,94080,37.664204,-122.39104,96220,1/21/2015,2015
Fremont,CA,94538,37.503555,-121.97501,151071,1/31/2015,2015
Pacific Palisades,CA,90272,34.045902,-118.56484,104642,2/1/2015,2015
San Diego,CA,92121,32.902199,-117.1937,102060,2/1/2015,2015
Petaluma,CA,94952,38.242699,-122.625,102049,2/1/2015,2015
Newport Beach,CA,92660,33.617447,-117.88909,113171,2/1/2015,2015
Capitola,CA,95010,36.969856,-121.96517,112903,2/1/2015,2015
Cambria,CA,93428,35.568684,-121.10539,112898,2/1/2015,2015
Redondo Beach,CA,90278,33.894199,-118.3674,102051,2/1/2015,2015
Lone Pine,CA,93545,36.600601,-118.0619,102038,2/1/2015,2015
Manteca,CA,95337,37.7826,-121.2287,102040,2/1/2015,2015
Mojave,CA,93501,35.044827,-118.15553,71262,2/1/2015,2015
Needles,CA,92363,34.8508,-114.6243,102047,2/1/2015,2015
Pismo Beach,CA,93449,35.145901,-120.64605,70272,2/1/2015,2015
South Lake Tahoe,CA,96150,38.955959,-119.94347,113418,2/1/2015,2015
Pismo Beach,CA,93449,35.14571,-120.64632,113264,2/1/2015,2015
Santa Ynez,CA,93460,34.613461,-120.08222,113400,2/1/2015,2015
Pacific Palisades,CA,90272,34.045849,-118.56485,104643,2/1/2015,2015
Napa,CA,94559,38.292614,-122.28702,113159,2/1/2015,2015
Los Angeles,CA,90077,34.086452,-118.44635,113095,2/1/2015,2015
Woodland,CA,95695,38.678299,-121.7727,69944,2/10/2015,2015
Woodland,CA,95695,38.679199,-121.7743,69945,2/10/2015,2015
Marina del Rey,CA,90292,33.978466,-118.4596,148813,2/14/2015,2015
Milpitas,CA,95035,37.4226,-121.91949,148601,2/21/2015,2015
Santa Monica,CA,90404,34.030445,-118.4815,113383,3/1/2015,2015
San Francisco,CA,94111,37.792362,-122.4,113332,3/1/2015,2015
Cambria,CA,93428,35.559692,-121.08044,112897,3/1/2015,2015
Palm Desert,CA,92260,33.760345,-116.36176,113197,3/1/2015,2015
Redding,CA,96002,40.574272,-122.35909,113289,3/1/2015,2015
Palm Springs,CA,92264,33.800671,-116.54026,113216,3/1/2015,2015
Red Bluff,CA,96080,40.181629,-122.22024,113286,3/1/2015,2015
Santa Rosa,CA,95401,38.435875,-122.71981,113394,3/1/2015,2015
San Diego,CA,92037,32.847206,-117.27554,113325,3/1/2015,2015
Santa Monica,CA,90404,34.030445,-118.4815,68899,3/1/2015,2015
Sausalito,CA,94965,37.837673,-122.47942,113402,3/1/2015,2015
Rocklin,CA,95677,38.8009,-121.2105,102053,3/1/2015,2015
San Mateo,CA,94403,37.544701,-122.2901,102064,3/1/2015,2015
Yountville,CA,94599,38.403191,-122.36039,113519,3/1/2015,2015
Thousand Oaks,CA,91360,34.17905,-118.87891,113476,3/1/2015,2015
Chino Hills,CA,91709,33.978596,-117.70063,112922,3/1/2015,2015
Oakhurst,CA,93644,37.327454,-119.66041,113178,3/1/2015,2015
Inyokern,CA,93527,35.6465,-117.8126,102034,3/1/2015,2015
Coronado,CA,92118,32.681751,-117.17757,112934,3/1/2015,2015
Elk,CA,95432,39.127129,-123.71252,112958,3/1/2015,2015
Solana Beach,CA,92075,32.982895,-117.27036,113411,3/1/2015,2015
Palm Springs,CA,92262,33.846062,-116.54398,113203,3/1/2015,2015
Los Angeles,CA,90067,34.054111,-118.41228,113084,3/1/2015,2015
Los Alamos,CA,93440,34.743568,-120.27682,113075,3/1/2015,2015
San Diego,CA,92130,32.959656,-117.20147,148849,3/14/2015,2015
San Francisco,CA,94103,37.781929,-122.40417,148576,3/14/2015,2015
San Francisco,CA,94109,37.791546,-122.42211,148574,3/14/2015,2015
Chula Vista,CA,91910,32.630405,-117.08809,151055,3/30/2015,2015
Colma,CA,94014,37.67421,-122.46559,151056,3/30/2015,2015
Cerritos,CA,90701,33.859516,-118.09332,151052,3/31/2015,2015
Avila Beach,CA,93424,35.180092,-120.7355,112856,4/1/2015,2015
Turlock,CA,95380,37.508224,-120.88206,68403,4/1/2015,2015
Van Nuys,CA,91405,34.20713,-118.44959,67306,4/1/2015,2015
Modesto,CA,95356,37.708839,-120.99427,68398,4/1/2015,2015
Pacific Grove,CA,93950,36.620007,-121.9333,113196,4/1/2015,2015
Exeter,CA,93221,36.297256,-119.14031,68404,4/1/2015,2015
Fish Camp,CA,93623,37.473801,-119.6359,102020,4/1/2015,2015
Carmel,CA,93923,36.501991,-121.93724,112907,4/1/2015,2015
Mojave,CA,93501,35.0686,-118.1746,102041,4/1/2015,2015
Tahoe Vista,CA,96148,39.241795,-120.05652,113464,4/1/2015,2015
Los Angeles,CA,90049,34.07262,-118.46865,113078,4/1/2015,2015
Palm Springs,CA,92262,33.831333,-116.54503,113212,4/1/2015,2015
Carlsbad,CA,92011,33.097012,-117.28361,112905,4/1/2015,2015
Placerville,CA,95667,38.727589,-120.82703,68153,4/1/2015,2015
Oakhurst,CA,93644,37.335922,-119.64615,68388,4/1/2015,2015
Stockton,CA,95206,37.909462,-121.2324,68395,4/1/2015,2015
South Lake Tahoe,CA,96150,38.933044,-119.97157,68152,4/1/2015,2015
Placerville,CA,95667,38.694939,-120.90668,68151,4/1/2015,2015
Sacramento,CA,95811,38.575241,-121.50454,71440,4/1/2015,2015
South Lake Tahoe,CA,96150,38.96003,-119.9446,113430,4/1/2015,2015
San Simeon,CA,93452,35.613575,-121.1434,113361,4/1/2015,2015
Mendocino,CA,95460,39.316589,-123.79936,113123,4/1/2015,2015
Lake Arrowhead,CA,92352,34.250957,-117.19234,113060,4/1/2015,2015
San Francisco,CA,94080,37.647797,-122.40702,67924,4/1/2015,2015
Modesto,CA,95354,37.705399,-120.99548,68399,4/1/2015,2015
Camarillo,CA,93010,34.215851,-119.03465,120911,4/1/2015,2015
Carmel,CA,93923,36.519745,-121.80664,112906,4/1/2015,2015
Dana Point,CA,92624,33.457687,-117.67065,112946,4/1/2015,2015
St Helena,CA,94574,38.478161,-122.43774,113438,4/1/2015,2015
Hanford,CA,93230,36.320442,-119.6553,96856,4/1/2015,2015
Paso Robles,CA,93446,35.59771,-120.82969,113250,4/1/2015,2015
Westlake Village,CA,91361,34.155251,-118.82533,113510,4/1/2015,2015
Manteca,CA,95336,37.853554,-121.21893,113117,4/1/2015,2015
St Helena,CA,94574,38.511742,-122.43176,113434,4/1/2015,2015
Hawthorne,CA,90250,33.90089,-118.37154,113003,4/1/2015,2015
Fremont,CA,94538,37.532665,-122.00101,112977,4/1/2015,2015
Oakhurst,CA,93644,37.335922,-119.64615,113176,4/1/2015,2015
Fish Camp,CA,93623,37.473003,-119.63612,99931,4/1/2015,2015
San Diego,CA,92122,32.87458,-117.20854,113316,4/1/2015,2015
Santa Monica,CA,90401,34.017109,-118.50111,113381,4/1/2015,2015
Merced,CA,95340,37.305111,-120.50192,68390,4/1/2015,2015
Pleasanton,CA,94588,37.683086,-121.89888,96218,4/9/2015,2015
Citrus Heights,CA,95621,38.70932,-121.31371,98977,4/10/2015,2015
El Segundo,CA,90245,33.916904,-118.38653,94887,4/12/2015,2015
San Jose,CA,95131,37.385139,-121.9288,49342,4/28/2015,2015
Fresno,CA,93710,36.810696,-119.74124,61815,5/1/2015,2015
Fountain Valley,CA,92708,33.702801,-117.9343,102023,5/1/2015,2015
South Lake Tahoe,CA,96150,38.932526,-119.93456,113426,5/1/2015,2015
Beverly Hills,CA,90212,34.066841,-118.40106,112865,5/1/2015,2015
Coronado,CA,92118,32.69453,-117.16704,112935,5/1/2015,2015
Huntington Beach,CA,92648,33.650715,-117.9911,113025,5/1/2015,2015
Pismo Beach,CA,93449,35.149551,-120.654,113267,5/1/2015,2015
Moreno Valley,CA,92553,33.935642,-117.27444,113140,5/1/2015,2015
Colton,CA,92324,34.074017,-117.35113,99043,5/1/2015,2015
Palm Desert,CA,92210,33.720753,-116.32749,113200,5/1/2015,2015
Beverly Hills,CA,90210,34.067463,-118.39655,112862,5/1/2015,2015
Mammoth Lakes,CA,93546,37.636021,-118.99084,113113,5/1/2015,2015
Paso Robles,CA,93446,35.59938,-120.57098,113249,5/1/2015,2015
Forestville,CA,95436,38.489319,-122.8837,112969,5/1/2015,2015
Hopland,CA,95449,38.96006,-123.11546,113024,5/1/2015,2015
Goleta,CA,93117,34.433365,-119.91978,112989,5/1/2015,2015
Arroyo Grande,CA,93420,35.12207,-120.58896,112854,5/1/2015,2015
Little River,CA,95456,39.262512,-123.78366,113065,5/1/2015,2015
Rowland Heights,CA,91748,33.994877,-117.89231,113295,5/1/2015,2015
Santa Barbara,CA,93103,34.439278,-119.70362,113370,5/1/2015,2015
Sherman Oaks,CA,91403,34.15168,-118.46654,67788,5/1/2015,2015
San Diego,CA,92037,32.883808,-117.24416,113327,5/1/2015,2015
Angwin,CA,94508,38.561455,-122.44645,112850,5/1/2015,2015
Los Angeles,CA,90036,34.072941,-118.35815,69138,5/1/2015,2015
San Marcos,CA,92078,33.124599,-117.20757,113355,5/1/2015,2015
Playa Vista,CA,90094,33.979328,-118.40654,94782,5/10/2015,2015
Tahoe City,CA,96145,39.161201,-120.14542,113463,6/1/2015,2015
Pismo Beach,CA,93449,35.149303,-120.65142,113266,6/1/2015,2015
Laguna Beach,CA,92651,33.515545,-117.757,113057,6/1/2015,2015
San Francisco,CA,94108,37.792309,-122.4109,113342,6/1/2015,2015
Long Beach,CA,90802,33.767532,-118.19175,70358,6/1/2015,2015
St Helena,CA,94574,38.522747,-122.46633,113440,6/1/2015,2015
Rosemead,CA,91770,34.037167,-118.0808,113294,6/1/2015,2015
City of Industry,CA,91744,34.020687,-117.92711,112924,6/1/2015,2015
Murphys,CA,95247,38.142612,-120.49484,113147,6/1/2015,2015
Paso Robles,CA,93446,35.650074,-120.74563,113235,6/1/2015,2015
Murphys,CA,95247,38.136963,-120.46185,113148,6/1/2015,2015
Pismo Beach,CA,93449,35.16497,-120.69017,70401,6/1/2015,2015
Paso Robles,CA,93446,35.584362,-120.71604,113231,6/1/2015,2015
Cambria,CA,93428,35.57642,-121.11337,112901,6/1/2015,2015
Napa,CA,94559,38.296494,-122.28239,113161,6/1/2015,2015
Los Angeles,CA,90024,34.063244,-118.4409,113104,6/1/2015,2015
West Hollywood,CA,90069,34.095078,-118.37259,113506,6/1/2015,2015
Fulton,CA,95439,38.503059,-122.7702,112980,6/1/2015,2015
Santa Rosa,CA,95404,38.393524,-122.69349,113397,6/1/2015,2015
St Helena,CA,94574,38.500111,-122.46454,113439,6/1/2015,2015
St Helena,CA,94574,38.500095,-122.47884,113432,6/1/2015,2015
Carpinteria,CA,93013,34.39222,-119.50971,112916,6/1/2015,2015
Cambria,CA,93428,35.573586,-121.1121,112900,6/1/2015,2015
Trinidad,CA,95570,41.058643,-124.14272,113481,6/1/2015,2015
Westlake Village,CA,91362,34.151367,-118.8045,113509,6/1/2015,2015
Sea Ranch,CA,95497,38.680134,-123.42866,113404,6/1/2015,2015
Calistoga,CA,94515,38.560196,-122.53719,112889,6/1/2015,2015
Little River,CA,95456,39.271965,-123.78915,113066,6/1/2015,2015
Calistoga,CA,94515,38.579727,-122.57906,112883,6/1/2015,2015
Seaside,CA,93955,36.617001,-121.844,102067,6/1/2015,2015
Calistoga,CA,94515,38.578056,-122.57765,112878,6/1/2015,2015
Napa,CA,94558,38.40575,-122.32793,113163,6/1/2015,2015
Fresno,CA,93710,36.809395,-119.77969,112979,6/1/2015,2015
Occidental,CA,95465,38.407219,-122.94643,113185,6/1/2015,2015
Los Angeles,CA,90071,34.052567,-118.25652,113088,6/1/2015,2015
Los Angeles,CA,90015,34.042053,-118.25685,113103,6/1/2015,2015
Riverside,CA,92501,33.985977,-117.37279,113292,6/1/2015,2015
Newport Beach,CA,92663,33.615757,-117.91476,113172,6/1/2015,2015
Healdsburg,CA,95448,38.659679,-122.88531,113015,6/1/2015,2015
Pismo Beach,CA,93449,35.165283,-120.69092,113270,6/1/2015,2015
Santa Rosa,CA,95401,38.476738,-122.79788,113396,6/1/2015,2015
Long Beach,CA,90802,33.767532,-118.19175,113072,6/1/2015,2015
Los Angeles,CA,90010,34.062172,-118.29042,113087,6/1/2015,2015
Costa Mesa,CA,92626,33.665478,-117.88183,112936,6/1/2015,2015
Upper Lake,CA,95485,39.165066,-122.91046,113497,6/1/2015,2015
Downieville,CA,95936,39.559662,-120.82816,112955,6/1/2015,2015
Beverly Hills,CA,90210,34.072624,-118.39539,112864,6/1/2015,2015
Palm Springs,CA,92264,33.795307,-116.50015,113211,6/1/2015,2015
Aptos,CA,95003,36.950558,-121.87709,112851,6/1/2015,2015
Marina del Rey,CA,90292,33.984245,-118.45032,113119,6/1/2015,2015
Newport Beach,CA,92657,33.586838,-117.84304,113173,6/1/2015,2015
Rancho Santa Fe,CA,92067,33.018593,-117.20519,113285,6/1/2015,2015
Escondido,CA,92026,33.148109,-117.10677,96502,6/4/2015,2015
Santa Monica,CA,90401,34.017235,-118.50063,148805,6/16/2015,2015
Sacramento,CA,95811,38.569557,-121.49013,68001,6/16/2015,2015
Fontana,CA,92337,34.064548,-117.43201,151070,6/16/2015,2015
Los Angeles,CA,90024,34.060726,-118.44359,95504,6/20/2015,2015
San Diego,CA,92109,32.807301,-117.21783,113318,7/1/2015,2015
West Hollywood,CA,90069,34.092197,-118.37733,113503,7/1/2015,2015
Santa Monica,CA,90403,34.018795,-118.50106,113382,7/1/2015,2015
Banning,CA,92220,33.924927,-116.89977,99127,7/1/2015,2015
Los Angeles,CA,90017,34.053452,-118.26415,70011,7/1/2015,2015
Cupertino,CA,95014,37.307053,-122.12862,112943,7/1/2015,2015
San Diego,CA,92111,32.833641,-117.14364,113320,7/1/2015,2015
San Jose,CA,95113,37.333145,-121.88879,113346,7/1/2015,2015
Rancho Mirage,CA,92270,33.766796,-116.45821,113280,7/1/2015,2015
St Helena,CA,94574,38.556068,-122.49989,113437,7/1/2015,2015
Big Sur,CA,93920,36.124592,-121.63751,112871,7/1/2015,2015
Mountain View,CA,94043,37.414455,-122.07705,99961,7/1/2015,2015
Half Moon Bay,CA,94019,37.434875,-122.44113,112999,7/1/2015,2015
San Diego,CA,92101,32.717541,-117.16689,113315,7/1/2015,2015
Long Beach,CA,90815,33.811424,-118.13708,113073,7/1/2015,2015
San Francisco,CA,94103,37.785049,-122.40411,113340,7/1/2015,2015
Mendocino,CA,95460,39.315819,-123.79924,113122,7/1/2015,2015
Manhattan Beach,CA,90266,33.900593,-118.38861,113116,7/1/2015,2015
Rancho Mirage,CA,92270,33.743248,-116.40711,113279,7/1/2015,2015
Ojai,CA,93023,34.437996,-119.25555,113186,7/1/2015,2015
Palo Alto,CA,94301,37.443596,-122.16154,113219,7/1/2015,2015
Solana Beach,CA,92075,32.980667,-117.25994,113410,7/1/2015,2015
Dana Point,CA,92629,33.483047,-117.71529,112944,7/1/2015,2015
Paso Robles,CA,93446,35.625599,-120.69218,113225,7/1/2015,2015
Los Angeles,CA,90025,34.050186,-118.46046,113080,7/1/2015,2015
Los Angeles,CA,91602,34.14521,-118.37002,113089,7/1/2015,2015
Santa Barbara,CA,93108,34.421101,-119.64044,113364,7/1/2015,2015
Ferndale,CA,95536,40.575928,-124.26582,112966,7/1/2015,2015
Modesto,CA,95356,37.707588,-121.07143,70017,7/1/2015,2015
Chula Vista,CA,91910,32.63665,-117.09981,112923,7/1/2015,2015
Santa Ynez,CA,93460,34.613064,-120.07906,113401,7/1/2015,2015
Vista,CA,92081,33.146709,-117.24206,113502,7/1/2015,2015
Rutherford,CA,94558,38.468311,-122.40491,113296,7/1/2015,2015
Rancho Cordova,CA,95670,38.58952,-121.28501,70064,7/1/2015,2015
Oakville,CA,94562,38.444481,-122.40846,113183,7/1/2015,2015
San Francisco,CA,94103,37.786526,-122.40309,113338,7/1/2015,2015
Pismo Beach,CA,93449,35.152519,-120.66058,113268,7/1/2015,2015
Laguna Beach,CA,92651,33.529419,-117.77148,113056,7/1/2015,2015
Santa Rosa,CA,95403,38.495144,-122.75871,113398,7/1/2015,2015
Brea,CA,92821,33.918667,-117.8863,150845,7/8/2015,2015
San Francisco,CA,94105,37.790344,-122.39221,96066,7/24/2015,2015
Granada Hills,CA,91344,34.265556,-118.52448,96068,7/24/2015,2015
Long Beach,CA,90803,33.754578,-118.10928,82470,8/1/2015,2015
Redding,CA,96002,40.571392,-122.36431,69734,8/1/2015,2015
Twain Harte,CA,95383,38.043266,-120.21102,113492,8/1/2015,2015
Calistoga,CA,94515,38.598526,-122.64189,112888,8/1/2015,2015
Monterey,CA,93940,36.600479,-121.89511,113135,8/1/2015,2015
Palm Springs,CA,92262,33.823048,-116.55061,113210,8/1/2015,2015
Los Angeles,CA,90028,34.100632,-118.32587,113094,8/1/2015,2015
Geyserville,CA,95441,38.703678,-122.9615,112985,8/1/2015,2015
Paso Robles,CA,93446,35.634438,-120.60723,113242,8/1/2015,2015
Napa,CA,94558,38.47578,-122.38866,113167,8/1/2015,2015
Napa,CA,94558,38.341888,-122.32477,113157,8/1/2015,2015
San Leandro,CA,94577,37.71624,-122.18734,70573,8/1/2015,2015
Napa,CA,94558,38.355354,-122.28692,113156,8/1/2015,2015
Cambria,CA,93428,35.578529,-121.11547,112902,8/1/2015,2015
Calistoga,CA,94515,38.595646,-122.60571,112880,8/1/2015,2015
Novato,CA,94949,38.057365,-122.51407,70871,8/1/2015,2015
Mammoth Lakes,CA,93546,37.651264,-118.98631,113112,8/1/2015,2015
Mammoth Lakes,CA,93546,37.649231,-118.9864,113115,8/1/2015,2015
Los Angeles,CA,90045,33.946182,-118.38161,113092,8/1/2015,2015
Montecito,CA,93108,34.44698,-119.6236,113130,8/1/2015,2015
Groveland,CA,95321,37.876236,-119.85911,112995,8/1/2015,2015
Moss Beach,CA,94038,37.521965,-122.51362,113143,8/1/2015,2015
Desert Hot Springs,CA,92240,33.945225,-116.48727,112953,8/1/2015,2015
Truckee,CA,96161,39.267357,-120.12754,113484,8/1/2015,2015
Paso Robles,CA,93446,35.644878,-120.68842,113236,8/1/2015,2015
Napa,CA,94559,38.30508,-122.28329,113155,8/1/2015,2015
Sonoma,CA,95476,38.173183,-122.45069,113416,8/1/2015,2015
San Diego,CA,92101,32.725456,-117.19994,113306,8/1/2015,2015
Sonoma,CA,95476,38.314331,-122.48332,113415,8/1/2015,2015
Novato,CA,94949,38.058125,-122.51347,70872,8/1/2015,2015
Big Sur,CA,93920,36.231297,-121.77045,112869,8/1/2015,2015
Marina del Rey,CA,90292,33.981739,-118.4599,113118,8/1/2015,2015
San Francisco,CA,94104,37.792603,-122.40044,113335,8/1/2015,2015
Novato,CA,94949,38.059185,-122.51427,70873,8/1/2015,2015
Hemet,CA,92545,33.734863,-117.03148,113020,8/1/2015,2015
Carlsbad,CA,92056,33.099167,-117.2859,112904,8/1/2015,2015
Santa Barbara,CA,93101,34.420506,-119.70284,113365,8/1/2015,2015
Cayucos,CA,93430,35.449165,-120.90568,112918,8/1/2015,2015
Shingletown,CA,96088,40.511265,-121.8121,113408,8/1/2015,2015
Lockeford,CA,95237,38.165588,-121.15188,113068,8/1/2015,2015
Los Angeles,CA,90015,34.043011,-118.26356,113077,8/1/2015,2015
Napa,CA,94558,38.345753,-122.3398,113152,8/1/2015,2015
Redondo Beach,CA,90277,33.833122,-118.3856,69102,8/19/2015,2015
Los Angeles,CA,90067,34.062702,-118.415,96508,8/19/2015,2015
Irvine,CA,92614,33.682411,-117.84304,148828,8/20/2015,2015
Woodland,CA,95695,38.676197,-121.76629,70587,9/1/2015,2015
Woodland,CA,95695,38.683945,-121.79905,70588,9/1/2015,2015
Costa Mesa,CA,92626,33.691586,-117.89276,112937,9/1/2015,2015
Woodland,CA,95695,38.658127,-121.79471,70584,9/1/2015,2015
Woodland,CA,95776,38.671074,-121.7398,70590,9/1/2015,2015
Woodland,CA,95695,38.669819,-121.79456,70589,9/1/2015,2015
Woodland,CA,95695,38.642231,-121.82246,70585,9/1/2015,2015
Woodland,CA,95695,38.686897,-121.78623,70586,9/1/2015,2015
San Diego,CA,92126,32.91383,-117.14278,95153,9/4/2015,2015
San Diego,CA,92126,32.912296,-117.14653,95152,9/4/2015,2015
San Francisco,CA,94103,37.775818,-122.41724,95963,9/5/2015,2015
El Segundo,CA,90245,33.925423,-118.38829,94746,9/9/2015,2015
Walnut Creek,CA,94598,37.917912,-122.03713,151267,9/10/2015,2015
Pasadena,CA,91101,34.145336,-118.13656,69872,9/15/2015,2015
Salinas,CA,93905,36.678486,-121.64079,148743,9/18/2015,2015
San Diego,CA,92119,32.802547,-117.01274,151240,9/21/2015,2015
Chula Vista,CA,91911,32.619373,-117.02434,95481,9/26/2015,2015
Santa Clara,CA,95054,37.386589,-121.9834,148614,9/29/2015,2015
San Diego,CA,92110,32.751602,-117.21751,151237,9/30/2015,2015
Cerritos,CA,90703,33.867626,-118.06171,99019,10/1/2015,2015
Thousand Oaks,CA,91360,34.184135,-118.88621,151260,10/1/2015,2015
Huntington Beach,CA,92648,33.678097,-117.98742,148835,10/2/2015,2015
Newport Beach,CA,92663,33.624897,-117.93465,148839,10/2/2015,2015
Torrance,CA,90503,33.855087,-118.35283,151261,10/21/2015,2015
San Pedro,CA,90731,33.740055,-118.28397,148837,10/21/2015,2015
Alameda,CA,94501,37.776436,-122.25253,99085,10/23/2015,2015
Brea,CA,92823,33.910271,-117.85092,150846,10/28/2015,2015
Westlake Village,CA,91361,34.152794,-118.82494,151270,10/30/2015,2015
Truckee,CA,96161,39.327461,-120.18571,99090,11/1/2015,2015
Burbank,CA,91502,34.184898,-118.3117,102004,11/1/2015,2015
Truckee,CA,96161,39.335426,-120.18199,99089,11/1/2015,2015
Los Angeles,CA,90027,34.148872,-118.28397,70010,11/1/2015,2015
Truckee,CA,96161,39.321899,-120.1621,102071,11/1/2015,2015
San Diego,CA,92126,32.895054,-117.13045,71144,11/1/2015,2015
San Diego,CA,92109,32.792267,-117.20847,96157,11/13/2015,2015
San Diego,CA,92103,32.749577,-117.15398,151234,11/16/2015,2015
Dublin,CA,94568,37.703201,-121.9253,102015,12/1/2015,2015
Los Angeles,CA,90064,34.036976,-118.4426,148799,12/4/2015,2015
San Jose,CA,95113,37.334526,-121.89098,148621,12/4/2015,2015
Soledad,CA,93960,36.428307,-121.32724,148746,12/4/2015,2015
Indio,CA,92201,33.706829,-116.252,148771,12/5/2015,2015
Redwood City,CA,94063,37.484867,-122.23129,151232,12/14/2015,2015
Goleta,CA,93117,34.428398,-119.87521,94752,12/15/2015,2015
Sacramento,CA,95815,38.59626,-121.42989,148503,12/22/2015,2015
Cathedral City,CA,92234,33.830132,-116.45831,148765,12/23/2015,2015
Sunnyvale,CA,94089,37.400955,-122.01218,148612,12/31/2015,2015
Los Angeles,CA,90272,34.054981,-118.51263,63471,12/31/2015,2015
Mammoth Lakes,CA,93546,37.644501,-118.9655,102039,12/31/2015,2015
San Francisco,CA,94115,37.786808,-122.43033,113334,1/1/2016,2016
Paso Robles,CA,93446,35.575016,-120.68958,113241,1/1/2016,2016
Santa Barbara,CA,93103,34.416107,-119.67657,113369,1/1/2016,2016
San Diego,CA,92037,32.852295,-117.2609,113310,1/1/2016,2016
Fremont,CA,94538,37.476025,-121.94244,75722,1/1/2016,2016
Los Angeles,CA,90012,34.059132,-118.24859,152069,1/1/2016,2016
Woodside,CA,94062,37.438175,-122.32293,113515,1/1/2016,2016
Paso Robles,CA,93446,35.62738,-120.68588,113229,1/1/2016,2016
Paso Robles,CA,93446,35.66349,-120.6673,113240,1/1/2016,2016
Petaluma,CA,94954,38.232231,-122.6143,113260,1/1/2016,2016
Van Nuys,CA,91406,34.200611,-118.48703,113498,1/1/2016,2016
Windsor,CA,95492,38.486824,-122.80906,113512,1/1/2016,2016
Paso Robles,CA,93446,35.640984,-120.68779,74784,1/1/2016,2016
Fremont,CA,94538,37.481075,-121.94569,75721,1/1/2016,2016
Beverly Hills,CA,90210,34.081661,-118.41202,112866,1/1/2016,2016
azusa,CA,91702,34.127419,-117.89037,99076,1/1/2016,2016
Danville,CA,94526,37.810684,-121.99116,112947,1/1/2016,2016
Fremont,CA,94538,37.479816,-121.94485,69986,1/1/2016,2016
Los Angeles,CA,90007,34.019032,-118.27787,76704,1/1/2016,2016
Napa,CA,94558,38.303486,-122.31133,113151,1/1/2016,2016
Templeton,CA,93465,35.579948,-120.71777,113471,1/1/2016,2016
Alturas,CA,96101,41.482521,-120.54227,112839,1/1/2016,2016
Santa Monica,CA,90405,34.025806,-118.45655,113388,1/1/2016,2016
Orange,CA,92868,33.789982,-117.89108,113191,1/1/2016,2016
Los Angeles,CA,90031,34.080345,-118.21901,191215,1/1/2016,2016
Ukiah,CA,95482,39.148102,-123.2086,102074,1/1/2016,2016
Orange,CA,92866,33.786339,-117.85335,113190,1/1/2016,2016
Paso Robles,CA,93446,35.640984,-120.68779,113228,1/1/2016,2016
San Marcos,CA,92078,33.121014,-117.2161,113357,1/1/2016,2016
Fremont,CA,94538,37.48011,-121.94707,75720,1/1/2016,2016
Anaheim,CA,92806,33.853737,-117.84677,148802,1/14/2016,2016
Baldwin Park,CA,91706,34.065502,-117.98645,148780,1/14/2016,2016
Vacaville,CA,95688,38.388512,-121.9381,148511,1/14/2016,2016
Lancaster,CA,93534,34.661079,-118.14191,148763,1/14/2016,2016
Oak Glen,CA,92399,34.039818,-116.94148,73467,1/15/2016,2016
San Diego,CA,92120,32.79134,-117.09518,148870,1/16/2016,2016
Panorama City,CA,91402,34.218792,-118.43005,148777,1/23/2016,2016
Woodland Hills,CA,91365,34.170994,-118.58974,148789,1/23/2016,2016
San Diego,CA,92128,32.9622,-117.09212,72850,1/25/2016,2016
San Diego,CA,92121,32.876125,-117.211,72802,1/25/2016,2016
Los Angeles,CA,91364,34.167152,-118.59117,72798,1/25/2016,2016
Ferndale,CA,95540,40.576302,-124.2645,143783,1/26/2016,2016
San Rafael,CA,94903,38.00457,-122.55526,148534,1/27/2016,2016
Pasadena,CA,91188,34.150398,-118.14223,148774,1/27/2016,2016
Pleasanton,CA,94588,37.697582,-121.89383,148540,1/27/2016,2016
Irvine,CA,92618,33.658451,-117.77446,148830,1/27/2016,2016
Sacramento,CA,95825,38.601383,-121.39314,148502,1/27/2016,2016
Roseville,CA,95661,38.747406,-121.25066,148499,1/27/2016,2016
San Francisco,CA,94123,37.803955,-122.42948,70601,1/27/2016,2016
Vallejo,CA,94589,38.12767,-122.24844,148528,1/27/2016,2016
Turlock,CA,95382,37.524246,-120.85194,75693,2/1/2016,2016
Monrovia,CA,91016,34.133904,-118.0027,75317,2/1/2016,2016
Mammoth Lakes,CA,93546,37.649506,-118.98425,113114,2/1/2016,2016
Ontario,CA,91764,34.070995,-117.55623,113188,2/1/2016,2016
Arcadia,CA,91006,34.142479,-118.02918,75316,2/1/2016,2016
Duarte,CA,91010,34.13398,-117.96568,75318,2/1/2016,2016
Templeton,CA,93465,35.555172,-120.74847,113473,2/1/2016,2016
Pasadena,CA,91107,34.14883,-118.07962,63168,2/1/2016,2016
San Diego,CA,92130,32.938408,-117.19736,113319,2/1/2016,2016
Santa Rosa,CA,95401,38.4688,-122.85074,113395,2/1/2016,2016
Mission Viejo,CA,92692,33.654408,-117.62663,113128,2/1/2016,2016
St Helena,CA,94574,38.484886,-122.44781,113441,2/1/2016,2016
Fresno,CA,93722,36.835499,-119.9106,102026,2/1/2016,2016
Paso Robles,CA,93446,35.584431,-120.73726,113233,2/1/2016,2016
Cupertino,CA,95014,37.321392,-122.03143,112942,2/1/2016,2016
Plymouth,CA,95642,38.521805,-120.81789,113274,2/1/2016,2016
Buttonwillow,CA,93206,35.400101,-119.3978,102005,2/1/2016,2016
Los Angeles,CA,90029,34.093067,-118.29131,113079,2/1/2016,2016
Monterey,CA,93940,36.599808,-121.89478,113136,2/1/2016,2016
Corona,CA,92882,33.878784,-117.60458,112930,2/1/2016,2016
Los Angeles,CA,91405,34.189934,-118.44819,76673,2/1/2016,2016
Windsor,CA,95492,38.54887,-122.80749,113513,2/1/2016,2016
Brentwood,CA,94513,37.923676,-121.65727,112873,2/1/2016,2016
Chico,CA,95928,39.724899,-121.80556,112921,2/1/2016,2016
Laguna Woods,CA,92637,33.610489,-117.72967,113059,2/1/2016,2016
Little River,CA,95456,39.277863,-123.79053,113067,2/1/2016,2016
San Bernardino,CA,92407,34.182701,-117.324,75692,2/1/2016,2016
Turlock,CA,95382,37.522518,-120.85547,75694,2/1/2016,2016
Citrus Heights,CA,95621,38.682606,-121.29762,25519,2/1/2016,2016
Azusa,CA,91702,34.095737,-117.8902,75320,2/1/2016,2016
Irwindale,CA,91702,34.128551,-117.93212,75319,2/1/2016,2016
Hope Valley,CA,96120,38.770985,-119.90227,113022,2/1/2016,2016
San Diego,CA,92128,33.031765,-117.06724,96470,2/5/2016,2016
Santa Clara,CA,95054,37.41156,-121.9764,99688,2/8/2016,2016
Venice,CA,90291,34.001305,-118.46952,151266,2/9/2016,2016
San Diego,CA,92130,32.96167,-117.1899,148848,2/10/2016,2016
Oakland,CA,94612,37.807434,-122.26805,148551,2/13/2016,2016
Oakland,CA,94612,37.805767,-122.2652,148552,2/13/2016,2016
Placentia,CA,92870,33.871883,-117.86201,73712,2/16/2016,2016
Suisun City,CA,94585,38.241646,-122.04013,148518,2/17/2016,2016
Fairfield,CA,94534,38.275059,-122.05067,148514,2/17/2016,2016
San Diego,CA,92154,32.57687,-117.06867,71517,2/20/2016,2016
San Diego,CA,92130,32.931293,-117.21738,70884,2/25/2016,2016
South San Francisco,CA,94080,37.65831,-122.39956,148588,2/26/2016,2016
Napa,CA,94558,38.419899,-122.32012,113164,3/1/2016,2016
Jamestown,CA,95327,37.95211,-120.42331,113038,3/1/2016,2016
Paso Robles,CA,93446,35.576126,-120.69022,113238,3/1/2016,2016
Paso Robles,CA,93446,35.598747,-120.83305,113251,3/1/2016,2016
Anaheim,CA,92802,33.80302,-117.91544,112847,3/1/2016,2016
Los Angeles,CA,90017,34.057007,-118.25921,76705,3/1/2016,2016
South Lake Tahoe,CA,96150,38.960888,-119.94938,113429,3/1/2016,2016
San Francisco,CA,94108,37.79184,-122.40684,113339,3/1/2016,2016
Brooks,CA,95606,38.732887,-122.14354,74267,3/1/2016,2016
Fremont,CA,94538,37.489155,-121.94639,112976,3/1/2016,2016
Monterey,CA,93940,36.592628,-121.89394,113138,3/1/2016,2016
Los Angeles,CA,90028,34.100307,-118.32646,113083,3/1/2016,2016
Seal Beach,CA,90740,33.776791,-118.07175,113405,3/1/2016,2016
Eureka,CA,95501,40.804317,-124.1595,112963,3/1/2016,2016
Stinson Beach,CA,94970,37.896507,-122.63941,70603,3/1/2016,2016
San Francisco,CA,94115,37.785393,-122.42857,113333,3/1/2016,2016
Mountain View,CA,94040,37.389477,-122.09217,113144,3/1/2016,2016
Coffee Creek,CA,96091,41.084072,-122.71777,112928,3/1/2016,2016
Palo Alto,CA,94301,37.444687,-122.16535,76699,3/1/2016,2016
Santa Rosa,CA,95403,38.509468,-122.80419,113399,3/1/2016,2016
Ontario,CA,91764,34.070393,-117.55544,113189,3/1/2016,2016
Yorba Linda,CA,92887,33.872459,-117.74109,113516,3/1/2016,2016
Coffee Creek,CA,96091,41.084595,-122.7185,74805,3/1/2016,2016
Beverly Hills,CA,90210,34.069035,-118.40228,112863,3/1/2016,2016
Lake Elsinore,CA,92530,33.65881,-117.30147,113062,3/1/2016,2016
El Segundo,CA,90245,33.930569,-118.40074,112957,3/1/2016,2016
Solana Beach,CA,92075,32.994335,-117.2578,148846,3/2/2016,2016
Solana Beach,CA,92075,32.99403,-117.25317,148845,3/2/2016,2016
San Diego,CA,92109,32.782539,-117.24923,70882,3/7/2016,2016
San Diego,CA,92122,32.867325,-117.19872,71519,3/21/2016,2016
Oakland,CA,94611,37.822693,-122.25962,148542,3/22/2016,2016
Oakland,CA,94611,37.825962,-122.25779,148538,3/22/2016,2016
San Diego,CA,92130,32.927197,-117.23685,148859,3/29/2016,2016
Fortuna,CA,95540,40.578827,-124.15313,112972,4/1/2016,2016
Coronado,CA,92118,32.684761,-117.16601,75489,4/1/2016,2016
Paso Robles,CA,93446,35.574135,-120.74174,113232,4/1/2016,2016
Calistoga,CA,94515,38.607567,-122.60397,112882,4/1/2016,2016
Napa,CA,94558,38.358543,-122.2933,113158,4/1/2016,2016
Calistoga,CA,94515,38.579842,-122.51057,112893,4/1/2016,2016
Fountain Valley,CA,92708,33.708752,-117.95355,112974,4/1/2016,2016
Los Angeles,CA,90014,34.043671,-118.25796,113099,4/1/2016,2016
San Francisco,CA,94102,37.78598,-122.41084,113336,4/1/2016,2016
Paso Robles,CA,93446,35.570633,-120.74201,74947,4/1/2016,2016
Carmel,CA,93923,36.539787,-121.90844,112908,4/1/2016,2016
San Diego,CA,92037,32.855049,-117.25805,113323,4/1/2016,2016
Ukiah,CA,95482,39.146923,-123.19738,113493,4/1/2016,2016
South San Francisco,CA,94080,37.66013,-122.39763,75492,4/1/2016,2016
Los Angeles,CA,90048,34.076336,-118.3745,113097,4/1/2016,2016
Jenner,CA,95450,38.515976,-123.24671,63477,4/1/2016,2016
Laguna Beach,CA,92651,33.511463,-117.75279,113058,4/1/2016,2016
Newport Beach,CA,92660,33.619995,-117.87499,113175,4/1/2016,2016
Placerville,CA,95667,38.790485,-120.8886,113272,4/1/2016,2016
Healdsburg,CA,95448,38.61031,-122.87135,113008,4/1/2016,2016
Glen Ellen,CA,95442,38.340214,-122.5063,112988,4/1/2016,2016
Grass Valley,CA,95945,39.220863,-121.0629,112993,4/1/2016,2016
San Diego,CA,92127,33.047401,-117.07402,71524,4/3/2016,2016
El Segundo,CA,90245,33.923012,-118.38985,94745,4/4/2016,2016
Fairfield,CA,94534,38.217907,-122.14318,148524,4/14/2016,2016
San Jose,CA,95129,37.30946,-121.99514,148639,4/29/2016,2016
Fresno,CA,93720,36.73275,-119.78367,112978,5/1/2016,2016
Paso Robles,CA,93446,35.636005,-120.86193,113255,5/1/2016,2016
Paso Robles,CA,93446,35.636517,-120.85932,75830,5/1/2016,2016
Northridge,CA,91330,34.235504,-118.52776,75690,5/1/2016,2016
Del Mar,CA,92014,32.978523,-117.25607,112951,5/1/2016,2016
Napa,CA,94558,38.349445,-122.26566,113154,5/1/2016,2016
Healdsburg,CA,95448,38.577747,-122.87704,113019,5/1/2016,2016
Hopland,CA,95449,38.967411,-123.11454,113023,5/1/2016,2016
Irvine,CA,92614,33.69466,-117.8587,113034,5/1/2016,2016
Clearlake Oaks,CA,95423,39.029606,-122.58289,112925,5/1/2016,2016
Temecula,CA,92591,33.5242,-117.1526,102069,5/1/2016,2016
Calistoga,CA,94515,38.616947,-122.59387,112887,5/1/2016,2016
Paso Robles,CA,93446,35.643715,-120.6341,113239,5/1/2016,2016
Laguna Beach,CA,92651,33.530319,-117.77372,113055,5/1/2016,2016
Fortuna,CA,95540,40.578178,-124.15255,112973,5/1/2016,2016
Highland,CA,92346,34.150482,-117.22915,113021,5/1/2016,2016
Oakville,CA,94562,38.440914,-122.38132,113184,5/1/2016,2016
Bridgeport,CA,93517,38.187778,-119.20638,112874,5/1/2016,2016
Dana Point,CA,92629,33.465904,-117.68937,112945,5/1/2016,2016
San Jose,CA,95119,37.239761,-121.80025,148640,5/2/2016,2016
San Leandro,CA,94577,37.70636,-122.16514,148571,5/3/2016,2016
Poway,CA,92064,32.980553,-117.06114,151147,5/9/2016,2016
Palo Alto,CA,94301,37.446606,-122.15845,148615,5/13/2016,2016
El Segundo,CA,90245,33.916767,-118.39722,94804,5/18/2016,2016
Coalinga,CA,93210,36.2561,-120.24818,77558,5/18/2016,2016
Monrovia,CA,91016,34.132973,-117.98763,76721,5/26/2016,2016
Susanville,CA,96130,40.406425,-120.63117,113459,6/1/2016,2016
Santa Maria,CA,93454,34.925674,-120.43519,82352,6/1/2016,2016
Ojai,CA,93023,34.442783,-119.25671,121081,6/1/2016,2016
Paso Robles,CA,93446,35.570633,-120.79115,113245,6/1/2016,2016
Sacramento,CA,95821,38.631393,-121.39661,39929,6/1/2016,2016
Anaheim,CA,92805,33.823532,-117.91049,112849,6/1/2016,2016
Indian Wells,CA,92210,33.724514,-116.33129,113029,6/1/2016,2016
Calistoga,CA,94515,38.56654,-122.55573,112896,6/1/2016,2016
San Leandro,CA,94577,37.723141,-122.19,148556,6/11/2016,2016
Yosemite Valley,CA,95386,37.745956,-119.57433,66931,6/13/2016,2016
Yosemite National Park,CA,95389,37.746674,-119.57415,113517,6/13/2016,2016
Sacramento,CA,95837,38.678936,-121.5918,81126,6/15/2016,2016
Tulare,CA,93274,36.225597,-119.3336,77561,6/15/2016,2016
Santa Monica,CA,90401,34.009602,-118.49191,95683,6/15/2016,2016
Burbank,CA,91505,34.155495,-118.34593,99132,6/15/2016,2016
South San Francisco,CA,94080,37.665554,-122.38245,148586,6/16/2016,2016
Stockton,CA,95210,38.039516,-121.29781,147136,6/20/2016,2016
Stockton,CA,95209,38.045078,-121.36681,76386,6/20/2016,2016
Lodi,CA,95240,38.123478,-121.24808,147135,6/20/2016,2016
Stockton,CA,95209,38.051544,-121.35126,76387,6/20/2016,2016
Castaic,CA,91384,34.491867,-118.61681,69973,6/29/2016,2016
La Crescenta,CA,91214,34.22097,-118.23026,67302,7/1/2016,2016
Los Angeles,CA,90056,34.006111,-118.36903,82468,7/1/2016,2016
Mt. Shasta,CA,96067,41.317501,-122.3197,103927,7/1/2016,2016
Santa Rosa,CA,95401,38.449963,-122.71713,77140,7/7/2016,2016
Ventura,CA,93001,34.28006,-119.30403,96085,7/13/2016,2016
San Diego,CA,92101,32.708961,-117.15379,96108,7/14/2016,2016
Moreno,CA,92555,33.934532,-117.1804,99133,7/15/2016,2016
Napa,CA,94558,38.2356,-122.2639,102046,7/15/2016,2016
Palo Alto,CA,94304,37.44149,-122.17111,148619,7/20/2016,2016
Placentia,CA,92870,33.886475,-117.86466,151144,7/29/2016,2016
Fremont,CA,94538,37.552425,-121.9744,148583,8/13/2016,2016
Diamond Bar,CA,91765,34.002762,-117.83115,112954,8/15/2016,2016
Petaluma,CA,94954,38.272434,-122.66235,113259,8/15/2016,2016
Los Gatos,CA,95030,37.220882,-121.97713,113108,8/15/2016,2016
Berkeley,CA,94705,37.857819,-122.24274,112860,8/15/2016,2016
Saint Helena,CA,94574,38.528366,-122.49789,113449,8/15/2016,2016
Orange,CA,92868,33.789242,-117.89178,113192,8/15/2016,2016
Indian Wells,CA,92210,33.721325,-116.33008,113030,8/15/2016,2016
Temecula,CA,92592,33.525185,-117.06326,113467,8/15/2016,2016
Los Angeles,CA,90048,34.069942,-118.37687,113090,8/15/2016,2016
San Francisco,CA,94111,37.788078,-122.39915,113330,8/15/2016,2016
San Diego,CA,92101,32.716457,-117.16352,113303,8/15/2016,2016
San Diego,CA,92109,32.796879,-117.25661,113322,8/15/2016,2016
Paso Robles,CA,93446,35.581276,-120.80007,113247,8/15/2016,2016
San Diego,CA,92109,32.775394,-117.23883,113307,8/15/2016,2016
Paso Robles,CA,93446,35.665283,-120.88692,113224,8/15/2016,2016
Napa,CA,94558,38.454563,-122.36388,113162,8/15/2016,2016
Alpine,CA,91901,32.839397,-116.77723,112838,8/15/2016,2016
Saint Helena,CA,94574,38.467266,-122.353,113446,8/15/2016,2016
Saint Helena,CA,94574,38.488968,-122.45065,113450,8/15/2016,2016
Folsom,CA,95630,38.647202,-121.1183,102022,8/15/2016,2016
Los Angeles,CA,90007,34.028976,-118.27806,99147,8/15/2016,2016
Solvang,CA,93463,34.59557,-120.14695,113412,8/15/2016,2016
Paso Robles,CA,93446,35.577629,-120.79199,113246,8/15/2016,2016
Calistoga,CA,94515,38.569599,-122.5127,112890,8/15/2016,2016
Redlands,CA,92374,34.062283,-117.19695,113290,8/15/2016,2016
Sonoma,CA,95476,38.300407,-122.40458,113417,8/15/2016,2016
Murphys,CA,95247,38.137981,-120.46406,113149,8/15/2016,2016
Napa,CA,94558,38.310242,-122.24825,113166,8/15/2016,2016
Acampo,CA,95220,38.188259,-121.17979,112834,8/15/2016,2016
Napa,CA,94559,38.293087,-122.28423,113160,8/15/2016,2016
Ukiah,CA,95482,39.159805,-123.20939,113495,8/15/2016,2016
San Francisco,CA,94111,37.79295,-122.3981,113331,8/15/2016,2016
Santa Barbara,CA,93101,34.408607,-119.69395,113366,8/15/2016,2016
Paso Robles,CA,93446,35.590248,-120.71632,113230,8/15/2016,2016
Templeton,CA,93465,35.575912,-120.69023,113475,8/15/2016,2016
Arcadia,CA,91007,34.139233,-118.04531,112852,8/15/2016,2016
Sacramento,CA,95816,38.564632,-121.47202,99165,8/15/2016,2016
Sacramento,CA,95814,38.577427,-121.49108,113298,8/15/2016,2016
Eureka,CA,95501,40.7789,-124.1884,102018,8/15/2016,2016
Corona,CA,92879,33.888401,-117.51665,112931,8/15/2016,2016
Paso Robles,CA,93446,35.658138,-120.90466,113227,8/15/2016,2016
Union City,CA,94587,37.606888,-122.0834,148582,8/16/2016,2016
Barstow,CA,92311,34.855709,-117.08219,94737,8/16/2016,2016
Canoga Park,CA,91303,34.191635,-118.59704,94740,8/18/2016,2016
Bakersfield,CA,93309,35.365128,-119.05589,94735,8/19/2016,2016
Emeryville,CA,94608,37.845051,-122.29243,94747,8/22/2016,2016
Pasadena,CA,91107,34.141968,-118.09143,94781,8/22/2016,2016
San Diego,CA,92121,32.917847,-117.23645,148863,8/24/2016,2016
South Sacramento,CA,95823,38.46991,-121.42164,148504,8/26/2016,2016
Carlsbad,CA,92009,33.10466,-117.26842,151050,8/26/2016,2016
Woodland,CA,95695,38.679001,-121.775,75437,9/1/2016,2016
Victorville,CA,92392,34.507931,-117.32572,113501,9/1/2016,2016
Cayucos,CA,93430,35.496239,-120.80616,112919,9/1/2016,2016
Crescent City,CA,95531,41.752399,-124.1944,102010,9/1/2016,2016
St. Helena,CA,94574,38.476173,-122.43943,113445,9/1/2016,2016
Temecula,CA,92591,33.532078,-117.07269,113469,9/1/2016,2016
Oakville,CA,94562,38.437473,-122.40279,113182,9/1/2016,2016
Willits,CA,95490,39.399685,-123.34894,113511,9/1/2016,2016
Los Altos,CA,94022,37.396454,-122.10599,148626,9/14/2016,2016
Taft,CA,93268,35.140839,-119.44871,78782,9/14/2016,2016
Los Angeles,CA,90025,34.044422,-118.45474,99148,9/15/2016,2016
Los Angeles,CA,90002,33.945717,-118.24111,81144,9/15/2016,2016
Garberville,CA,95542,40.098331,-123.79539,78859,9/29/2016,2016
Costa Mesa,CA,92626,33.665253,-117.88136,112939,10/1/2016,2016
Bakersfield,CA,93314,35.354599,-119.3316,102000,10/1/2016,2016
Santa Monica,CA,90405,34.007202,-118.49146,113392,10/1/2016,2016
Redondo Beach,CA,90277,33.849777,-118.39613,113291,10/1/2016,2016
Cupertino,CA,95014,37.322128,-122.01814,151062,10/1/2016,2016
Los Angeles,CA,90046,34.098274,-118.3677,113096,10/1/2016,2016
San Francisco,CA,94115,37.79422,-122.4377,148575,10/1/2016,2016
Los Angeles,CA,90012,34.050846,-118.24226,113081,10/1/2016,2016
Milpitas,CA,95035,37.432919,-121.89909,148598,10/4/2016,2016
South San Francisco,CA,94080,37.649643,-122.4043,148592,10/21/2016,2016
Jamestown,CA,95327,37.929218,-120.45184,113037,11/1/2016,2016
Tahoe City,CA,96145,39.166985,-120.14533,113462,11/1/2016,2016
Tulare,CA,93274,36.211479,-119.32343,113489,11/1/2016,2016
Corona del Mar,CA,92625,33.593693,-117.86754,112933,11/1/2016,2016
Los Angeles,CA,90064,34.022366,-118.43768,80009,11/1/2016,2016
San Francisco,CA,94108,37.791649,-122.4108,113343,11/1/2016,2016
Santa Clara,CA,95054,37.392117,-121.97433,113371,11/1/2016,2016
South Lake Tahoe,CA,96150,38.95945,-119.94658,113428,11/1/2016,2016
Oakhurst,CA,93644,37.361092,-119.64434,113177,11/1/2016,2016
Salinas,CA,93908,36.482388,-121.48655,113300,11/1/2016,2016
Placerville,CA,95667,38.746834,-120.71904,113271,11/1/2016,2016
Costa Mesa,CA,92627,33.64233,-117.91955,151060,11/28/2016,2016
Kentfield,CA,94904,37.952332,-122.54915,94758,11/28/2016,2016
Twentynine Palms,CA,92277,34.120499,-116.051,102073,12/1/2016,2016
Corte Madera,CA,94925,37.927998,-122.51295,151059,12/2/2016,2016
Los Angeles,CA,90016,34.0257,-118.37193,95007,12/9/2016,2016
San Francisco,CA,94111,37.794418,-122.39964,148563,12/11/2016,2016
Emeryville,CA,94608,37.838165,-122.30067,99684,12/12/2016,2016
East Los Angeles,CA,90022,34.033836,-118.15274,95006,12/12/2016,2016
Encinitas,CA,92024,33.049812,-117.2889,93133,12/13/2016,2016
St. Helena,CA,94574,38.470291,-122.42922,113444,12/15/2016,2016
Paso Robles,CA,93446,35.647373,-120.66988,113234,12/15/2016,2016
Glen Ellen,CA,95442,38.366707,-122.52877,112987,12/15/2016,2016
Pismo Beach,CA,93449,35.164547,-120.68932,113269,12/15/2016,2016
Santa Barbara,CA,93103,34.418312,-119.67131,113368,12/15/2016,2016
Santa Monica,CA,90401,34.015446,-118.49911,113384,12/15/2016,2016
La Quinta,CA,92253,33.703163,-116.2932,113054,12/15/2016,2016
Long Beach,CA,90802,33.75713,-118.19849,113074,12/15/2016,2016
Desert Hot Springs,CA,92240,33.955692,-116.48245,112952,12/15/2016,2016
Huntington Beach,CA,92648,33.654072,-117.99584,113026,12/15/2016,2016
San Jose,CA,95111,37.296524,-121.85374,113348,12/15/2016,2016
Fontana,CA,92335,34.072777,-117.43561,148768,12/17/2016,2016
Fresno,CA,93727,36.766769,-119.71848,96807,12/19/2016,2016
Fresno,CA,93727,36.766769,-119.71848,80872,12/19/2016,2016
Emeryville,CA,94608,37.836666,-122.29472,151067,12/30/2016,2016
West Sacramento,CA,95605,38.58643,-121.5526,95347,12/31/2016,2016
San Joaquin,CA,93660,36.605946,-120.18637,85580,1/1/2017,2017
Sanger,CA,93657,36.706161,-119.56219,85584,1/1/2017,2017
Coalinga,CA,93210,36.138695,-120.36184,85585,1/1/2017,2017
Kingsburg,CA,93631,36.514767,-119.55285,85578,1/1/2017,2017
Selma,CA,93662,36.566654,-119.61008,85582,1/1/2017,2017
Mendota,CA,93640,36.753933,-120.38247,85579,1/1/2017,2017
Parlier,CA,93648,36.612179,-119.54064,85586,1/1/2017,2017
Orange Cove,CA,93646,36.623959,-119.31239,85583,1/1/2017,2017
Riverside,CA,92501,33.981144,-117.37702,105476,1/1/2017,2017
Reedley,CA,93654,36.599014,-119.4536,85581,1/1/2017,2017
Kerman,CA,93630,36.727657,-120.0617,85577,1/1/2017,2017
Fowler,CA,93625,36.627739,-119.67769,85587,1/1/2017,2017
Emeryville,CA,94606,37.834305,-122.29145,151066,1/11/2017,2017
San Francisco,CA,94158,37.765839,-122.39185,151243,1/11/2017,2017
Hanford,CA,93230,36.338406,-119.69081,118693,1/15/2017,2017
Groveland,CA,95321,37.838699,-120.232,102029,1/15/2017,2017
Hanford,CA,93230,36.342686,-119.64568,148692,1/20/2017,2017
Hanford,CA,93230,36.328449,-119.61364,148694,1/20/2017,2017
Hanford,CA,93230,36.330242,-119.66213,148701,1/20/2017,2017
Richmond,CA,94801,37.937119,-122.3605,148533,1/27/2017,2017
Torrance,CA,90501,33.823727,-118.32928,94800,1/30/2017,2017
Norwalk,CA,90650,33.91399,-118.1036,95005,1/31/2017,2017
San Diego,CA,92126,32.906906,-117.12183,81773,2/1/2017,2017
Woodland,CA,95776,38.695999,-121.7,96793,2/1/2017,2017
San Diego,CA,92107,32.748367,-117.25245,81774,2/1/2017,2017
Colton,CA,92324,34.071735,-117.32274,94730,2/1/2017,2017
San Diego,CA,92103,32.74995,-117.14921,81772,2/1/2017,2017
Los Angeles,CA,90049,34.12484,-118.47905,81371,2/1/2017,2017
Santa Monica,CA,90405,34.00312,-118.48531,82280,2/1/2017,2017
Walnut,CA,91789,34.009628,-117.86085,94802,2/2/2017,2017
Anza,CA,92539,33.557682,-116.63995,148797,2/5/2017,2017
Livermore,CA,94551,37.694351,-121.74205,81325,2/9/2017,2017
Los Angeles,CA,90045,33.944836,-118.37058,148815,2/9/2017,2017
San Francisco,CA,94158,37.76804,-122.38978,151242,2/10/2017,2017
Morgan Hill,CA,95037,37.134117,-121.63182,148648,2/14/2017,2017
Campbell,CA,95008,37.262756,-121.95654,82709,2/17/2017,2017
Beverly Hills,CA,90210,34.066345,-118.41303,112867,3/1/2017,2017
Palm Springs,CA,92264,33.801613,-116.53239,113201,3/1/2017,2017
Paso Robles,CA,93446,35.649895,-120.80656,113248,3/1/2017,2017
Rancho Mirage,CA,92270,33.742493,-116.41302,113282,3/1/2017,2017
Los Angeles,CA,90071,34.050159,-118.25697,113091,3/1/2017,2017
Lodi,CA,95242,38.145611,-121.30735,113069,3/1/2017,2017
Milpitas,CA,95035,37.445271,-121.9198,94768,3/1/2017,2017
Fort Bragg,CA,95437,39.462914,-123.80631,112971,3/1/2017,2017
Huron,CA,93234,36.206051,-120.10358,82229,3/1/2017,2017
South Lake Tahoe,CA,96150,38.957596,-119.9429,113427,3/1/2017,2017
Oroville,CA,95966,39.466293,-121.51614,113194,3/1/2017,2017
San Diego,CA,92037,32.905731,-117.24385,113304,3/1/2017,2017
Big Sur,CA,93920,36.22908,-121.7644,112870,3/1/2017,2017
Kenwood,CA,95452,38.428303,-122.55477,113044,3/1/2017,2017
Plymouth,CA,95669,38.526253,-120.8018,113275,3/1/2017,2017
Kirkwood,CA,95646,38.684711,-120.06518,113046,3/1/2017,2017
Inverness,CA,94937,38.107136,-122.86252,113033,3/1/2017,2017
Healdsburg,CA,95448,38.631275,-122.89699,113006,3/1/2017,2017
Torrance,CA,90503,33.844067,-118.35363,85958,3/1/2017,2017
Santa Monica,CA,90405,34.010612,-118.48543,113391,3/1/2017,2017
Richmond,CA,94804,37.911945,-122.35839,81713,3/1/2017,2017
Deer Park,CA,94576,38.560078,-122.47715,112949,3/1/2017,2017
Saint Helena,CA,94574,38.521065,-122.38076,113455,3/1/2017,2017
Healdsburg,CA,94949,38.655685,-122.93607,113013,3/1/2017,2017
Calistoga,CA,94515,38.575104,-122.57917,112879,3/1/2017,2017
Arroyo Grande,CA,93420,35.157345,-120.53587,112853,3/1/2017,2017
Cathedral City,CA,92234,33.781197,-116.46554,112917,3/1/2017,2017
San Jose,CA,95134,37.411854,-121.95058,81712,3/1/2017,2017
La Quinta,CA,92253,33.666527,-116.26087,113052,3/1/2017,2017
Calistoga,CA,94515,38.580536,-122.57835,112884,3/1/2017,2017
Sausalito,CA,94965,37.857075,-122.48116,113403,3/1/2017,2017
Geyserville,CA,95441,38.709774,-122.96543,112986,3/1/2017,2017
Palm Springs,CA,92262,33.832317,-116.54607,113213,3/1/2017,2017
Sunnyvale,CA,94087,37.34045,-122.04229,151256,3/6/2017,2017
Santa Clara,CA,95051,37.338421,-121.97476,151251,3/6/2017,2017
Oakley,CA,94561,38.005535,-121.75189,95885,3/10/2017,2017
San Leandro,CA,94578,37.707958,-122.13278,96142,3/10/2017,2017
Brentwood,CA,94513,37.92569,-121.73646,96352,3/10/2017,2017
Pleasant Hill,CA,94523,37.95348,-122.05992,96332,3/10/2017,2017
San Ramon,CA,94583,37.724426,-121.94313,95926,3/10/2017,2017
Fairfield,CA,94533,38.259247,-122.05515,151069,3/10/2017,2017
La Jolla,CA,92037,32.904121,-117.24463,148864,3/16/2017,2017
Santa Barbara,CA,93101,34.418003,-119.69962,151250,3/24/2017,2017
Yorba Linda,CA,92886,33.889446,-117.82865,148793,3/28/2017,2017
Clovis,CA,93611,36.845196,-119.667,85951,4/1/2017,2017
Sacramento,CA,95814,38.584419,-121.50187,99139,4/1/2017,2017
Turlock,CA,95382,37.522472,-120.86047,68402,4/1/2017,2017
West Covina,CA,91790,34.071304,-117.93011,151269,4/10/2017,2017
Capitola,CA,95010,36.977081,-121.96903,151049,4/12/2017,2017
Long Beach,CA,90802,33.767357,-118.19,94760,4/14/2017,2017
Glendale,CA,91203,34.149178,-118.25607,99199,4/17/2017,2017
San Francisco,CA,94105,37.78849,-122.39674,148569,4/20/2017,2017
Los Angeles,CA,90034,34.029972,-118.38523,21525,4/25/2017,2017
Lincoln,CA,95648,38.840267,-121.31564,82391,4/25/2017,2017
San Diego,CA,92123,32.831402,-117.12463,148868,4/26/2017,2017
San Diego,CA,92123,32.83004,-117.1216,148869,4/26/2017,2017
Danville,CA,94506,37.783833,-121.96759,82456,4/27/2017,2017
Downey,CA,90241,33.94698,-118.15504,65657,4/27/2017,2017
Chula Vista,CA,91911,32.593784,-117.03054,82460,4/28/2017,2017
Santa Ana,CA,92705,33.724705,-117.85029,189499,4/28/2017,2017
Irvine,CA,92618,33.658939,-117.75323,148827,4/29/2017,2017
Baldwin Park,CA,91706,34.069447,-117.97453,94736,4/30/2017,2017
Santa Ana,CA,92707,33.700249,-117.88201,94792,4/30/2017,2017
Ontario,CA,91764,34.06525,-117.60688,94771,5/1/2017,2017
Elk Grove,CA,95758,38.409946,-121.42058,99176,5/1/2017,2017
San Francisco,CA,94158,37.768349,-122.39423,151241,5/3/2017,2017
Clovis,CA,93611,36.837303,-119.67966,148581,5/4/2017,2017
Azusa,CA,91702,34.134151,-117.90774,94734,5/9/2017,2017
San Diego,CA,92130,32.927059,-117.23694,148860,5/9/2017,2017
Fresno,CA,93711,36.850109,-119.80544,94750,5/10/2017,2017
Los Angeles,CA,90013,34.039768,-118.23308,94765,5/13/2017,2017
Irvine,CA,92618,33.649357,-117.73362,94755,5/16/2017,2017
Irvine,CA,92618,33.651367,-117.73511,94756,5/16/2017,2017
El Cajon,CA,92020,32.806564,-116.96714,151065,5/19/2017,2017
Santa Clara,CA,95050,37.370724,-121.94473,82667,5/20/2017,2017
Ontario,CA,91761,34.021137,-117.60454,94774,5/22/2017,2017
Ontario,CA,91764,34.073677,-117.56685,94776,5/23/2017,2017
Ontario,CA,91764,34.066029,-117.64946,94772,5/23/2017,2017
Camarillo,CA,93012,34.228245,-119.02005,94739,5/24/2017,2017
Anaheim,CA,92802,33.802315,-117.92484,148818,5/26/2017,2017
Tustin,CA,92782,33.697395,-117.827,151263,5/26/2017,2017
Cypress,CA,90630,33.801216,-118.03474,148821,5/27/2017,2017
Culver City,CA,90232,34.016449,-118.38197,69976,5/30/2017,2017
Moffett Field,CA,94035,37.409389,-122.06345,85628,6/1/2017,2017
Placerville,CA,95667,38.666748,-120.93747,143993,6/1/2017,2017
Firebaugh,CA,93622,36.859283,-120.45506,85853,6/1/2017,2017
Anaheim,CA,92802,33.802963,-117.92763,148819,6/1/2017,2017
Santa Barbara,CA,93109,34.40686,-119.6977,85751,6/1/2017,2017
Pasadena,CA,91105,34.141998,-118.14863,85750,6/1/2017,2017
Burbank,CA,91502,34.174557,-118.30314,96447,6/7/2017,2017
Rosemead,CA,91770,34.048672,-118.08403,94784,6/10/2017,2017
Sacramento,CA,95838,38.634754,-121.43475,94786,6/14/2017,2017
La Habra,CA,90631,33.918152,-117.9383,148795,6/16/2017,2017
Thousand Oaks,CA,91320,34.206326,-118.92997,94799,6/29/2017,2017
Irvine,CA,92606,33.700073,-117.84298,53907,7/1/2017,2017
Merced,CA,95348,37.315071,-120.47057,87890,7/1/2017,2017
Rosemead,CA,91770,34.083893,-118.0714,94785,7/11/2017,2017
El Monte,CA,91732,34.09359,-118.02077,94743,7/11/2017,2017
Healdsburg,CA,95448,38.623463,-122.86601,94753,7/11/2017,2017
San Diego,CA,92108,32.775265,-117.15557,151239,7/12/2017,2017
Davis,CA,95618,38.540703,-121.72822,148505,7/15/2017,2017
Mountain View,CA,94041,37.388046,-122.08224,148627,7/21/2017,2017
Fresno,CA,93721,36.733852,-119.78957,86203,7/27/2017,2017
Santa Monica,CA,90404,34.022041,-118.46563,151253,7/31/2017,2017
Alhambra,CA,91803,34.084324,-118.14974,82323,8/1/2017,2017
Fresno,CA,93650,36.850304,-119.80309,86711,8/1/2017,2017
Ontario,CA,91764,34.064789,-117.64827,94775,8/7/2017,2017
Ontario,CA,91762,34.04813,-117.65447,94770,8/11/2017,2017
San Diego,CA,92130,32.936451,-117.23869,148856,8/17/2017,2017
Los Angeles,CA,90043,34.048176,-118.49113,155035,8/25/2017,2017
Los Angeles,CA,90043,34.048222,-118.49112,94762,8/25/2017,2017
Inglewood,CA,90303,33.947475,-118.33983,94754,8/30/2017,2017
Berkeley,CA,94705,37.855762,-122.26066,93164,8/30/2017,2017
Thousand Oaks,CA,91362,34.210285,-118.84599,151259,8/30/2017,2017
San Diego,CA,92127,33.020016,-117.11147,151235,8/30/2017,2017
Escondido,CA,92026,33.1483,-117.10676,151068,8/31/2017,2017
Healdsburg,CA,95448,38.644333,-122.93301,113010,9/1/2017,2017
Saint Helena,CA,94574,38.46344,-122.34397,113447,9/1/2017,2017
Healdsburg,CA,95448,38.52264,-122.87861,113018,9/1/2017,2017
Avila Beach,CA,93424,35.189365,-120.7217,112857,9/1/2017,2017
Acampo,CA,95220,38.207474,-121.29734,112833,9/1/2017,2017
Plymouth,CA,95669,38.480869,-120.8479,113277,9/1/2017,2017
Lompoc,CA,93436,34.634792,-120.29698,113071,9/1/2017,2017
Santa Rosa,CA,95404,38.42606,-122.73602,113393,9/1/2017,2017
Plymouth,CA,95669,38.480785,-120.8484,113276,9/1/2017,2017
Paso Robles,CA,93446,35.675598,-120.72778,113243,9/1/2017,2017
Philo,CA,95466,39.13187,-123.53257,113261,9/1/2017,2017
Costa Mesa,CA,92626,33.691071,-117.88071,112938,9/1/2017,2017
Ventura,CA,93003,34.244476,-119.1982,113500,9/1/2017,2017
Del Mar,CA,92014,32.960064,-117.26599,112950,9/1/2017,2017
Geyserville,CA,95441,38.718346,-122.89418,112983,9/1/2017,2017
San Diego,CA,92109,32.765667,-117.24045,113308,9/1/2017,2017
Graeagle,CA,96103,39.793213,-120.53194,112991,9/1/2017,2017
Healdsburg,CA,94558,38.609062,-122.87059,113007,9/1/2017,2017
St Helena,CA,94574,38.509266,-122.47873,113433,9/1/2017,2017
Palo Alto,CA,94306,37.418388,-122.13541,113220,9/1/2017,2017
Rohnert Park,CA,94928,38.363846,-122.7164,113293,9/1/2017,2017
Truckee,CA,96161,39.329365,-120.18423,113482,9/1/2017,2017
Middletown,CA,95461,38.7327,-122.62457,113126,9/1/2017,2017
St. Helena,CA,94574,38.502693,-122.46498,113443,9/1/2017,2017
Santa Monica,CA,90401,34.00845,-118.49034,113387,9/1/2017,2017
West Hollywood,CA,90069,34.095886,-118.37097,113505,9/1/2017,2017
Calistoga,CA,94515,38.559982,-122.62971,112892,9/1/2017,2017
Beverly Hills,CA,90212,34.066124,-118.40912,112861,9/1/2017,2017
Sutter Creek,CA,95685,38.393215,-120.75546,113460,9/1/2017,2017
Monterey,CA,93940,36.585701,-121.8987,102042,9/1/2017,2017
Lewiston,CA,96052,40.708435,-122.80632,113064,9/1/2017,2017
Mariposa,CA,95338,37.486576,-119.9613,113120,9/1/2017,2017
Hawaiian Gardens,CA,90716,33.832561,-118.079,113001,9/1/2017,2017
Fulton,CA,95439,38.495777,-122.7666,112981,9/1/2017,2017
Chico,CA,95928,39.723682,-121.81545,112920,9/1/2017,2017
La Jolla,CA,92037,32.844536,-117.2755,113047,9/1/2017,2017
Monterey,CA,93940,36.610893,-121.85897,113134,9/1/2017,2017
La Quinta,CA,92253,33.680073,-116.30267,113049,9/1/2017,2017
Turlock,CA,95380,37.523014,-120.88441,113491,9/1/2017,2017
La Mesa,CA,91943,32.779659,-116.99165,113048,9/1/2017,2017
Mendocino,CA,95460,39.305748,-123.79925,113124,9/1/2017,2017
Cambria,CA,93428,35.572315,-121.11182,112899,9/1/2017,2017
Guerneville,CA,95446,38.499599,-122.9891,112996,9/1/2017,2017
West Hollywood,CA,90069,34.089813,-118.38533,113508,9/1/2017,2017
Yountville,CA,94599,38.400272,-122.35922,113518,9/1/2017,2017
Tiburon,CA,94920,37.87524,-122.45757,113478,9/1/2017,2017
Calistoga,CA,94515,38.5965,-122.60223,112881,9/1/2017,2017
Truckee,CA,96161,39.282063,-120.1198,113488,9/1/2017,2017
Healdsburg,CA,95448,38.653069,-122.92452,113009,9/1/2017,2017
Tuolumne,CA,95379,37.973469,-120.23849,113490,9/1/2017,2017
St. Helena,CA,94574,38.501549,-122.46496,113454,9/1/2017,2017
Healdsburg,CA,95448,38.678261,-122.92663,113012,9/1/2017,2017
Santa Cruz,CA,95060,36.984303,-122.02254,113377,9/1/2017,2017
Calistoga,CA,94515,38.584,-122.57566,112885,9/1/2017,2017
Fair Oaks,CA,95628,38.643757,-121.26873,112965,9/1/2017,2017
Universal City,CA,90068,34.138515,-118.35903,113496,9/1/2017,2017
St. Helena,CA,94574,38.487438,-122.43771,113451,9/1/2017,2017
Idyllwild,CA,92549,33.756092,-116.69976,113027,9/1/2017,2017
Carmel by the Sea,CA,93921,36.559155,-121.92249,112911,9/1/2017,2017
Morgan Hill,CA,95037,37.133827,-121.63236,113142,9/1/2017,2017
Santa Barbara,CA,93103,34.417553,-119.66905,113362,9/1/2017,2017
Fresno,CA,93710,36.811291,-119.76282,87970,10/9/2017,2017
Antioch,CA,94509,38.002411,-121.84244,150843,10/10/2017,2017
Orange,CA,92869,33.787334,-117.82574,152730,10/13/2017,2017
Gardena,CA,90745,33.859921,-118.28101,99685,10/13/2017,2017
Berkeley,CA,94710,37.873524,-122.3048,62833,10/15/2017,2017
Firebaugh,CA,93622,36.859566,-120.45503,95382,10/17/2017,2017
El Monte,CA,91732,34.053825,-118.0107,94742,10/25/2017,2017
Daly City,CA,94015,37.671307,-122.46997,151063,10/27/2017,2017
San Diego,CA,92130,32.95118,-117.23254,151236,10/27/2017,2017
Vacaville,CA,95688,38.382156,-121.94958,148512,10/28/2017,2017
Santa Ana,CA,92705,33.775902,-117.872,102066,11/1/2017,2017
Santa Clara,CA,95054,37.381344,-121.97574,88425,11/1/2017,2017
Tustin,CA,92782,33.696602,-117.8261,88635,11/1/2017,2017
Menlo Park,CA,94025,37.475121,-122.15022,88980,11/15/2017,2017
San Jose,CA,95134,37.390354,-121.93224,89034,11/15/2017,2017
Palo Alto,CA,94306,37.411465,-122.11195,88510,11/15/2017,2017
Santa Clara,CA,95050,37.364635,-121.93932,113373,11/15/2017,2017
Palo Alto,CA,94306,37.415443,-122.10318,89028,11/15/2017,2017
Sunnyvale,CA,94087,37.370449,-122.04416,89041,11/15/2017,2017
Palo Alto,CA,94303,37.449726,-122.11806,88990,11/15/2017,2017
Redwood City,CA,94063,37.495819,-122.2302,89031,11/15/2017,2017
San Jose,CA,95126,37.317245,-121.90948,89626,11/15/2017,2017
Atherton,CA,94027,37.458145,-122.19484,88976,11/15/2017,2017
Mountain View,CA,94040,37.360756,-122.06574,88984,11/15/2017,2017
Sunnyvale,CA,94089,37.390739,-121.99239,89043,11/15/2017,2017
Palo Alto,CA,94306,37.40826,-122.11972,113222,11/15/2017,2017
San Jose,CA,95136,37.262848,-121.81934,89036,11/15/2017,2017
Sunnyvale,CA,94089,37.413113,-122.02154,89042,11/15/2017,2017
Palo Alto,CA,94306,37.402691,-122.13315,89027,11/15/2017,2017
Palo Alto,CA,94306,37.409477,-122.12324,89030,11/15/2017,2017
Fremont,CA,94538,37.456814,-121.92517,88977,11/15/2017,2017
Cupertino,CA,95014,37.33754,-122.03816,89624,11/15/2017,2017
Palo Alto,CA,94303,37.430988,-122.10334,88993,11/15/2017,2017
Los Altos,CA,94022,37.404755,-122.11917,113076,11/15/2017,2017
Menlo Park,CA,94025,37.479084,-122.17957,88979,11/15/2017,2017
Beverly Hills,CA,90212,34.06636,-118.40386,150844,11/20/2017,2017
San Francisco,CA,94143,37.764099,-122.45822,151244,11/22/2017,2017
Lake Forest,CA,92630,33.663486,-117.68606,148823,11/29/2017,2017
Brentwood,CA,94513,37.945847,-121.73884,150847,11/30/2017,2017
Wasco,CA,93280,35.584763,-119.34373,166655,12/11/2017,2017
Anaheim,CA,92805,33.818916,-117.91581,148814,12/13/2017,2017
Palo Alto,CA,94022,37.379601,-122.11186,89625,12/18/2017,2017
Hanford,CA,93230,36.319443,-119.67056,94539,12/27/2017,2017
Pasadena,CA,91101,34.151001,-118.131,150775,1/1/2018,2018
Pasadena,CA,91101,34.142929,-118.14321,150776,1/1/2018,2018
Palo Alto,CA,94303,37.438797,-122.13412,147007,1/1/2018,2018
West Covina,CA,91790,34.071465,-117.93198,91899,1/1/2018,2018
Pleasanton,CA,94566,37.668999,-121.874,150778,1/1/2018,2018
Turlock,CA,95382,37.522259,-120.83862,96927,1/1/2018,2018
Los Angeles,CA,90063,34.050999,-118.174,150777,1/1/2018,2018
Altos Hills,CA,94022,37.388149,-122.14213,147008,1/1/2018,2018
Los Altos,CA,94024,37.372002,-122.107,150780,1/1/2018,2018
San Francisco,CA,94158,37.768002,-122.39,150773,1/1/2018,2018
Concord,CA,94520,37.97374,-122.05871,151058,1/26/2018,2018
San Jose,CA,95128,37.324505,-121.9428,151248,2/13/2018,2018
Los Angeles,CA,90015,34.04425,-118.263,94766,3/1/2018,2018
Downey,CA,90242,33.916473,-118.13223,102576,3/1/2018,2018
Gardena,CA,90247,33.896679,-118.29089,152126,3/5/2018,2018
Novato,CA,94945,38.106201,-122.56547,92999,3/7/2018,2018
Signal Hill,CA,90755,33.802307,-118.1683,93156,3/7/2018,2018
Oakland,CA,94606,37.792469,-122.25916,93606,3/7/2018,2018
San Jose,CA,95110,37.328793,-121.89175,148624,3/7/2018,2018
Pasadena,CA,91101,34.144962,-118.13309,148776,3/7/2018,2018
San Francisco,CA,94105,37.787861,-122.39945,148572,3/7/2018,2018
Sunnyvale,CA,94087,37.35984,-122.0217,148631,3/7/2018,2018
Hayward,CA,94545,37.633678,-122.08855,148580,3/7/2018,2018
Harbor City,CA,90710,33.78677,-118.29671,148832,3/8/2018,2018
Los Angeles,CA,90710,33.790356,-118.29313,148831,3/8/2018,2018
San Diego,CA,92122,32.851524,-117.18311,95036,3/13/2018,2018
San Marcos,CA,92069,33.140686,-117.1474,148842,3/13/2018,2018
El Dorado Hills,CA,95762,38.672516,-121.06474,94923,3/15/2018,2018
Los Altos,CA,94022,37.385746,-122.10985,155170,3/16/2018,2018
Los Altos,CA,94022,37.385746,-122.10985,94727,3/16/2018,2018
San Leandro,CA,94578,37.701664,-122.12629,151249,3/31/2018,2018
Goleta,CA,93117,34.434273,-119.86381,72354,4/1/2018,2018
San Luis Obispo,CA,93401,35.231171,-120.62474,104607,4/1/2018,2018
San Luis Obispo,CA,94301,35.235912,-120.62136,113354,4/1/2018,2018
Rancho Cucamonga,CA,91730,34.094204,-117.55695,98557,4/1/2018,2018
Los Banos,CA,93635,37.058475,-120.89549,96926,4/1/2018,2018
Fremont,CA,94538,37.466789,-121.9296,96775,4/2/2018,2018
Upland,CA,91711,34.12254,-117.69254,151265,4/2/2018,2018
San Diego,CA,92121,32.919754,-117.23804,148862,4/4/2018,2018
Santa Monica,CA,90404,34.025761,-118.49583,96797,4/8/2018,2018
Palm Springs,CA,92262,33.852211,-116.52109,113208,4/9/2018,2018
Lynwood,CA,90262,33.920788,-118.17982,166588,4/19/2018,2018
Los Angeles,CA,90034,34.038345,-118.3759,148796,4/19/2018,2018
Chatsworth,CA,91311,34.251331,-118.59941,155033,4/19/2018,2018
Santa Clara,CA,95054,37.413055,-121.97897,155056,4/24/2018,2018
Santa Clara,CA,95054,37.412361,-121.97694,155055,4/24/2018,2018
Santa Monica,CA,90403,34.020222,-118.49925,96794,4/25/2018,2018
Lee Vining,CA,93541,37.962204,-119.1216,166581,4/28/2018,2018
Westlake Village,CA,91361,34.148045,-118.81834,61532,4/30/2018,2018
Richmond,CA,94804,37.899429,-122.31817,99429,5/1/2018,2018
Reedley,CA,93654,36.546494,-119.43483,99779,5/1/2018,2018
San Jose,CA,95110,37.366272,-121.91348,148613,5/5/2018,2018
Concord,CA,94520,37.968327,-122.05692,151057,5/8/2018,2018
San Diego,CA,92111,32.818699,-117.17934,151238,5/14/2018,2018
Menlo Park,CA,94025,37.480995,-122.17,97046,5/15/2018,2018
San Mateo,CA,94402,37.554604,-122.30747,97069,5/16/2018,2018
Somerset,CA,95684,38.596752,-120.67976,100486,6/1/2018,2018
Santa Clarita,CA,91351,34.415081,-118.52415,99714,6/1/2018,2018
Rancho Cucamonga,CA,91730,34.097225,-117.54549,129032,6/1/2018,2018
Santa Rosa,CA,95407,38.420898,-122.75213,148525,6/1/2018,2018
Fremont,CA,94538,37.507401,-121.9614,166571,6/5/2018,2018
Anaheim,CA,92805,33.804268,-117.89689,148817,6/13/2018,2018
Los Angeles,CA,90019,34.054756,-118.31432,99217,6/14/2018,2018
Los Angeles,CA,90033,34.044991,-118.21309,99251,6/14/2018,2018
LA,CA,90004,34.075272,-118.3234,99260,6/14/2018,2018
North Hollywood,CA,91605,34.193947,-118.40108,99254,6/14/2018,2018
Van Nuys,CA,91401,34.185955,-118.44733,99243,6/14/2018,2018
Carson,CA,90745,33.800587,-118.28374,99291,6/14/2018,2018
Tarzana,CA,91356,34.166729,-118.53008,99232,6/14/2018,2018
Los Angeles,CA,90012,34.064255,-118.23663,99236,6/14/2018,2018
Los Angeles,CA,90028,34.100582,-118.32742,99265,6/14/2018,2018
North Hollywood,CA,91606,34.188839,-118.38765,99213,6/14/2018,2018
Diamond Bar,CA,91765,34.00127,-117.8289,99160,6/14/2018,2018
Venice,CA,90291,33.985497,-118.46934,99246,6/14/2018,2018
Los Angeles,CA,90045,33.959206,-118.4173,99174,6/14/2018,2018
Sherman Oaks,CA,91403,34.15057,-118.45113,99244,6/14/2018,2018
Los Angeles,CA,90025,34.045113,-118.44374,99131,6/14/2018,2018
Hollywood,CA,90028,34.102032,-118.33477,99241,6/14/2018,2018
Los Angeles,CA,90012,34.05994,-118.25362,99212,6/14/2018,2018
Los Angeles,CA,90039,34.100361,-118.25961,99239,6/14/2018,2018
Sylmar,CA,91342,34.272717,-118.39418,99242,6/14/2018,2018
Los Angeles,CA,90031,34.066933,-118.20399,99211,6/14/2018,2018
North Hills,CA,91343,34.234966,-118.48743,99255,6/14/2018,2018
Rancho Cucamonga,CA,91739,34.11338,-117.52951,148766,6/14/2018,2018
Northridge,CA,91325,34.234779,-118.53428,99233,6/14/2018,2018
Los Angeles,CA,90062,34.0144,-118.30862,99240,6/14/2018,2018
Studio City,CA,91604,34.150967,-118.40601,99237,6/14/2018,2018
Riverside,CA,92522,33.98056,-117.37556,99077,6/14/2018,2018
Whittier,CA,90601,34.033257,-118.02089,99294,6/14/2018,2018
Studio City,CA,91604,34.14415,-118.39948,99245,6/14/2018,2018
Canoga Park,CA,91304,34.221249,-118.59894,99249,6/14/2018,2018
Van Nuys,CA,91401,34.184364,-118.44656,99247,6/14/2018,2018
Westwood,CA,90024,34.061657,-118.44641,99259,6/14/2018,2018
Los Angeles,CA,90012,34.051327,-118.24104,99261,6/14/2018,2018
Chatsworth,CA,91311,34.256821,-118.59246,99234,6/14/2018,2018
Santa Clara,CA,95052,37.3885,-121.96457,99226,6/14/2018,2018
Van Nuys,CA,91401,34.185085,-118.44859,99218,6/14/2018,2018
Granada Hills,CA,91344,34.264656,-118.49715,99222,6/14/2018,2018
Sun Valley,CA,91352,34.215023,-118.37096,99238,6/14/2018,2018
Mission Hills,CA,91345,34.272758,-118.468,99252,6/14/2018,2018
Winnetka,CA,91306,34.220066,-118.57303,99216,6/14/2018,2018
Colton,CA,92324,34.049824,-117.31226,99187,6/14/2018,2018
Colton,CA,92324,34.04845,-117.31435,99185,6/14/2018,2018
Canoga Park,CA,91304,34.233578,-118.59051,191220,6/18/2018,2018
Newport Beach,CA,92660,33.663208,-117.86539,148833,6/20/2018,2018
Walnut Creek,CA,94598,37.930752,-122.01424,151268,6/20/2018,2018
Los Angeles,CA,90028,34.098034,-118.34183,99387,6/20/2018,2018
Burbank,CA,91505,34.154545,-118.33707,151048,6/20/2018,2018
Campbell,CA,95008,37.285282,-121.97768,99523,6/29/2018,2018
Sylmar,CA,91342,34.325912,-118.44551,76723,6/30/2018,2018
Sacramento,CA,95815,38.603199,-121.4286,102595,7/1/2018,2018
Temecula,CA,92590,33.506126,-117.17988,148826,7/13/2018,2018
Emeryville,CA,94608,37.839363,-122.29897,148539,7/13/2018,2018
Monterey,CA,93940,36.584858,-121.89809,148750,7/20/2018,2018
East Palo Alto,CA,94303,37.459599,-122.1377,102016,7/23/2018,2018
San Clemente,CA,92672,33.436798,-117.6269,102059,7/23/2018,2018
Kettleman City,CA,93239,35.987301,-119.9618,102035,7/23/2018,2018
San Carlos,CA,94070,37.502998,-122.2454,102058,7/23/2018,2018
Mountain View,CA,94043,37.415298,-122.0766,102045,7/23/2018,2018
Salinas,CA,93906,36.715599,-121.654,102056,7/23/2018,2018
Concord,CA,94520,37.9702,-122.0586,102008,7/23/2018,2018
Sunnyvale,CA,94086,37.373402,-122.0329,102068,7/23/2018,2018
Fairfield,CA,94533,38.261799,-122.0524,102019,7/23/2018,2018
Mount Shasta,CA,96067,41.310299,-122.3159,102043,7/23/2018,2018
Lake Elsinore,CA,92530,33.698601,-117.3487,102036,7/23/2018,2018
San Bernardino,CA,92408,34.084099,-117.2994,102057,7/23/2018,2018
San Mateo,CA,94404,37.558399,-122.2843,102065,7/23/2018,2018
Glendale,CA,91210,34.1451,-118.2572,102028,7/23/2018,2018
Sacramento,CA,95834,38.637798,-121.4972,102055,7/23/2018,2018
San Diego,CA,92101,32.7192,-117.1595,102061,7/23/2018,2018
Downey,CA,90240,33.9534,-118.1129,102014,7/23/2018,2018
Riverside,CA,92501,33.981499,-117.3761,102052,7/23/2018,2018
Baker,CA,92309,35.262699,-116.0807,101999,7/23/2018,2018
Valencia,CA,91355,34.431,-118.5541,102076,7/23/2018,2018
Cupertino,CA,95014,37.324402,-122.009,102012,7/23/2018,2018
Downey,CA,90241,33.934502,-118.1212,102013,7/23/2018,2018
Hollister,CA,95023,36.989899,-121.3804,102032,7/23/2018,2018
Hawthorne,CA,90250,33.921101,-118.3301,102031,7/23/2018,2018
Yermo,CA,92398,34.907299,-116.8355,102077,7/23/2018,2018
San Luis Obispo,CA,93405,35.265099,-120.6762,102063,7/23/2018,2018
Fremont,CA,94538,37.5443,-121.984,102024,7/23/2018,2018
Newport Beach,CA,92660,33.661884,-117.86901,148834,7/25/2018,2018
North Hollywood,CA,91606,34.187004,-118.39594,100011,7/31/2018,2018
Rialto,CA,92376,34.106956,-117.38261,100023,8/1/2018,2018
Los Angeles,CA,90044,33.963459,-118.29108,67308,8/1/2018,2018
Los Angeles,CA,90046,34.097969,-118.35897,100037,8/1/2018,2018
San Jose,CA,95129,37.317837,-121.97401,104585,8/1/2018,2018
Los Angeles,CA,91331,34.246052,-118.41867,100067,8/2/2018,2018
Los Angeles,CA,91306,34.202869,-118.57127,100065,8/2/2018,2018
Los Angeles,CA,91406,34.186874,-118.50047,100063,8/2/2018,2018
Los Angeles,CA,91403,34.160625,-118.44864,100064,8/2/2018,2018
Los Angeles,CA,90007,34.042183,-118.4609,100212,8/3/2018,2018
